City_ID,City,Lat,Lng,Max Temp,Humidity,Cloudiness,Wind Speed,Country,Date
0,Deputatskiy,69.3,139.9,51.49,93,100,1.52,RU,2022-08-20 18:33:17
1,Port Elizabeth,-33.918,25.5701,52.32,83,40,16.11,ZA,2022-08-20 18:33:08
2,Mahebourg,-20.4081,57.7,71.89,73,75,13.8,MU,2022-08-20 18:33:18
3,Georgetown,5.4112,100.3354,82.89,87,20,3.44,MY,2022-08-20 18:33:18
4,Chuy,-33.6971,-53.4616,55.08,54,100,6.64,UY,2022-08-20 18:33:19
5,Khatanga,71.9667,102.5,37.24,78,13,4.5,RU,2022-08-20 18:33:19
6,Chara,56.9064,118.2631,45.5,94,100,5.84,RU,2022-08-20 18:33:19
7,Cassilandia,-19.1133,-51.7342,78.21,37,6,7.14,BR,2022-08-20 18:33:20
8,Mar Del Plata,-38.0023,-57.5575,64.94,34,0,20.71,AR,2022-08-20 18:33:20
9,Srednekolymsk,67.45,153.6833,59.58,64,96,8.37,RU,2022-08-20 18:33:21
10,Longyearbyen,78.2186,15.6401,40.84,75,20,8.05,SJ,2022-08-20 18:33:21
11,Atar,20.5169,-13.0499,100.45,28,0,2.3,MR,2022-08-20 18:33:21
12,Punta Arenas,-53.15,-70.9167,46.51,53,20,20.71,CL,2022-08-20 18:33:22
13,Hithadhoo,-0.6,73.0833,81.37,76,34,9.69,MV,2022-08-20 18:33:22
14,Geraldton,-28.7667,114.6,45.01,93,0,5.75,AU,2022-08-20 18:31:24
15,Pevek,69.7008,170.3133,46.24,60,7,12.21,RU,2022-08-20 18:33:27
16,Forio,40.7342,13.8646,79.09,68,0,18.34,IT,2022-08-20 18:33:27
17,Yerbogachen,61.2767,108.0108,45.19,91,100,4.07,RU,2022-08-20 18:33:28
18,Bluff,-46.6,168.3333,48.79,90,100,6.78,NZ,2022-08-20 18:33:28
19,Saint George,37.1041,-113.5841,93.63,35,0,4.0,US,2022-08-20 18:33:28
20,Atuona,-9.8,-139.0333,76.51,75,31,16.58,PF,2022-08-20 18:33:29
21,Waw,7.7029,27.9953,69.3,94,52,2.19,SS,2022-08-20 18:30:05
22,Busselton,-33.65,115.3333,56.05,72,100,5.5,AU,2022-08-20 18:33:29
23,Qaqortoq,60.7167,-46.0333,40.55,96,100,8.72,GL,2022-08-20 18:33:30
24,Progreso,21.2833,-89.6667,89.71,61,3,16.89,MX,2022-08-20 18:33:30
25,Leon Valley,29.4952,-98.6186,97.83,46,75,14.97,US,2022-08-20 18:33:30
26,Salinas,36.6777,-121.6555,74.01,70,40,8.05,US,2022-08-20 18:29:06
27,Rikitea,-23.1203,-134.9692,72.32,83,87,10.56,PF,2022-08-20 18:33:31
28,Hilo,19.7297,-155.09,81.28,71,0,6.91,US,2022-08-20 18:28:39
29,Santa Cruz,-17.8,-63.1667,71.65,24,0,14.97,BO,2022-08-20 18:33:31
30,Sayhat,26.4852,50.0405,98.82,42,0,7.23,SA,2022-08-20 18:33:32
31,Arraial Do Cabo,-22.9661,-42.0278,69.66,52,100,10.36,BR,2022-08-20 18:33:32
32,Cherskiy,68.75,161.3,54.88,53,6,11.74,RU,2022-08-20 18:33:15
33,Canatlan,24.5167,-104.7833,79.79,37,16,7.47,MX,2022-08-20 18:33:33
34,Port Alfred,-33.5906,26.891,50.18,90,90,8.01,ZA,2022-08-20 18:33:33
35,Barrow,71.2906,-156.7887,32.02,80,100,13.8,US,2022-08-20 18:33:34
36,San Ignacio,17.1561,-89.0714,91.54,58,75,4.61,BZ,2022-08-20 18:33:34
37,Itoman,26.1247,127.6694,84.22,84,20,9.22,JP,2022-08-20 18:33:35
38,Maicao,11.3832,-72.2432,92.3,50,23,9.6,CO,2022-08-20 18:33:35
39,Christchurch,-43.5333,172.6333,49.95,84,40,3.44,NZ,2022-08-20 18:33:20
40,Namibe,-15.1961,12.1522,62.83,87,30,3.13,AO,2022-08-20 18:33:36
41,Bredasdorp,-34.5322,20.0403,46.96,75,9,6.96,ZA,2022-08-20 18:33:37
42,Pavilosta,56.8879,21.1859,71.51,74,98,11.83,LV,2022-08-20 18:33:37
43,Mataura,-46.1927,168.8643,48.47,98,100,2.21,NZ,2022-08-20 18:33:38
44,Ushuaia,-54.8,-68.3,44.26,45,20,1.14,AR,2022-08-20 18:33:38
45,Norman Wells,65.282,-126.8329,55.44,71,75,11.5,CA,2022-08-20 18:33:38
46,Merauke,-8.4667,140.3333,74.19,84,97,12.15,ID,2022-08-20 18:31:42
47,Vaini,-21.2,-175.2,68.16,88,20,9.22,TO,2022-08-20 18:37:26
48,Kushmurun,52.4503,64.6311,60.1,73,99,4.09,KZ,2022-08-20 18:37:26
49,Hobart,-42.8794,147.3294,36.05,90,75,10.36,AU,2022-08-20 18:37:27
50,Vila Velha,-20.3297,-40.2925,67.95,86,100,23.02,BR,2022-08-20 18:37:27
51,Muhos,64.808,25.9931,73.18,66,100,8.55,FI,2022-08-20 18:37:27
52,Tasiilaq,65.6145,-37.6368,42.96,96,100,3.42,GL,2022-08-20 18:37:28
53,Qaanaaq,77.484,-69.3632,39.6,54,100,1.79,GL,2022-08-20 18:37:28
54,Sitka,57.0531,-135.33,57.09,94,100,5.75,US,2022-08-20 18:36:23
55,Airai,-8.9266,125.4092,51.55,79,3,4.41,TL,2022-08-20 18:37:33
56,Pascagoula,30.3658,-88.5561,92.41,80,40,5.75,US,2022-08-20 18:36:28
57,Roald,62.5833,6.1333,61.72,82,75,2.3,NO,2022-08-20 18:37:34
58,Bengkulu,-3.8004,102.2655,75.96,91,100,6.73,ID,2022-08-20 18:37:34
59,Katsuura,35.1333,140.3,76.71,96,100,6.82,JP,2022-08-20 18:37:35
60,Tuktoyaktuk,69.4541,-133.0374,42.8,81,100,5.75,CA,2022-08-20 18:37:35
61,Leningradskiy,69.3833,178.4167,37.67,82,21,9.62,RU,2022-08-20 18:37:36
62,Provideniya,64.3833,-173.3,48.6,69,100,6.73,RU,2022-08-20 18:37:36
63,Nome,64.5011,-165.4064,56.16,67,0,18.41,US,2022-08-20 18:37:37
64,Salalah,17.0151,54.0924,77.09,94,100,4.61,OM,2022-08-20 18:37:37
65,Jibuti,11.5,42.5,74.14,82,100,13.09,DJ,2022-08-20 18:37:37
66,Nikolskoye,59.7035,30.7861,66.78,50,0,8.9,RU,2022-08-20 18:37:38
67,Banda Aceh,5.5577,95.3222,79.43,81,99,11.54,ID,2022-08-20 18:35:27
68,Dikson,73.5069,80.5464,42.44,85,100,9.26,RU,2022-08-20 18:37:38
69,Constitucion,-35.3333,-72.4167,61.23,65,100,13.44,CL,2022-08-20 18:33:27
70,Cidreira,-30.1811,-50.2056,57.36,66,0,13.24,BR,2022-08-20 18:37:39
71,Severo-Kurilsk,50.6789,156.125,53.1,98,100,12.46,RU,2022-08-20 18:37:39
72,Saint-Denis,48.9167,2.3333,77.16,43,0,5.75,FR,2022-08-20 18:37:40
73,Abalak,58.1286,68.5944,48.61,90,43,6.62,RU,2022-08-20 18:37:40
74,Ponta Do Sol,32.6667,-17.1,77.72,74,4,1.45,PT,2022-08-20 18:37:41
75,Puerto Ayora,-0.7393,-90.3518,78.76,90,95,5.99,EC,2022-08-20 18:37:41
76,Irondequoit,43.2134,-77.5797,92.07,56,75,9.22,US,2022-08-20 18:37:44
77,Sorland,67.667,12.6934,53.46,97,100,7.27,NO,2022-08-20 18:37:45
78,Half Moon Bay,37.4636,-122.4286,86.54,70,20,4.61,US,2022-08-20 18:34:33
79,Kavieng,-2.5744,150.7967,80.06,80,76,13.89,PG,2022-08-20 18:37:45
80,Fortuna,40.5982,-124.1573,64.98,94,75,3.44,US,2022-08-20 18:37:46
81,Cotusca,48.1333,26.85,72.59,52,6,2.95,RO,2022-08-20 18:37:46
82,Molina,-35.1167,-71.2833,57.36,61,0,8.05,CL,2022-08-20 18:32:52
83,Easton,40.6884,-75.2207,93.42,40,40,4.0,US,2022-08-20 18:34:27
84,Riyadh,24.6877,46.7219,100.54,9,0,8.86,SA,2022-08-20 18:36:10
85,Rantepao,-2.9701,119.8978,64.49,95,81,1.86,ID,2022-08-20 18:37:51
86,Lagoa,39.05,-27.9833,74.95,68,0,2.75,PT,2022-08-20 18:37:52
87,Puerto Del Rosario,28.5004,-13.8627,80.35,74,0,17.27,ES,2022-08-20 18:37:52
88,Kapaa,22.0752,-159.319,82.09,71,20,14.97,US,2022-08-20 18:33:57
89,Oriximina,-1.7656,-55.8661,95.92,33,56,5.59,BR,2022-08-20 18:37:53
90,Kaitangata,-46.2817,169.8464,47.08,95,100,3.09,NZ,2022-08-20 18:37:53
91,Presidencia Roque Saenz Pena,-26.7852,-60.4388,70.97,17,0,6.11,AR,2022-08-20 18:38:53
92,Hirara,24.8,125.2833,84.83,72,100,8.16,JP,2022-08-20 18:38:54
93,Saint-Philippe,-21.3585,55.7679,68.22,77,46,13.11,RE,2022-08-20 18:38:54
94,Carutapera,-1.195,-46.02,81.59,79,82,10.56,BR,2022-08-20 18:38:55
95,Sinjar,36.3209,41.8754,91.06,22,1,11.5,IQ,2022-08-20 18:38:56
96,Hermanus,-34.4187,19.2345,46.8,65,55,6.89,ZA,2022-08-20 18:38:56
97,Petropavlovsk-Kamchatskiy,53.0452,158.6483,54.19,94,100,4.47,RU,2022-08-20 18:38:56
98,Chapais,49.7834,-74.8492,74.98,64,23,5.79,CA,2022-08-20 18:38:57
99,Auburn,47.3073,-122.2284,71.44,80,100,6.91,US,2022-08-20 18:38:57
100,Isangel,-19.55,169.2667,69.91,94,40,0.0,VU,2022-08-20 18:38:57
101,Albany,42.6001,-73.9662,91.38,39,89,0.4,US,2022-08-20 18:37:29
102,Cairns,-16.9167,145.7667,62.55,82,9,9.22,AU,2022-08-20 18:38:58
103,Aklavik,68.2191,-135.0107,46.22,77,100,4.05,CA,2022-08-20 18:38:59
104,Lugoba,-6.45,38.3333,68.81,74,0,4.0,TZ,2022-08-20 18:38:59
105,Marovoay,-16.1,46.6333,69.35,75,0,1.86,MG,2022-08-20 18:38:59
106,Ixtapa,20.7,-105.2,91.22,58,20,1.99,MX,2022-08-20 18:39:00
107,Malinovskiy,61.1953,62.8397,57.51,52,99,1.25,RU,2022-08-20 18:39:00
108,Kirakira,-10.4544,161.9205,78.13,86,34,11.01,SB,2022-08-20 18:39:00
109,Aranos,-24.1333,19.1167,51.15,27,0,11.88,NA,2022-08-20 18:39:01
110,New Norfolk,-42.7826,147.0587,35.71,84,11,2.86,AU,2022-08-20 18:39:01
111,Dori,14.0354,-0.0345,78.62,71,82,6.76,BF,2022-08-20 18:39:02
112,Varhaug,58.6147,5.6457,64.15,84,100,15.3,NO,2022-08-20 18:39:02
113,Coquimbo,-29.9533,-71.3436,53.33,93,100,8.05,CL,2022-08-20 18:39:03
114,Naze,28.3667,129.4833,81.52,85,100,15.12,JP,2022-08-20 18:39:03
115,Tuatapere,-46.1333,167.6833,46.02,93,100,4.05,NZ,2022-08-20 18:39:04
116,Castro,-24.7911,-50.0119,56.08,69,100,9.22,BR,2022-08-20 18:39:04
117,Yairipok,24.6667,94.0667,70.34,98,98,0.85,IN,2022-08-20 18:39:05
118,Mabaruma,8.2,-59.7833,84.2,74,75,4.61,GY,2022-08-20 18:39:05
119,Vanavara,60.34,102.2797,48.63,98,100,6.62,RU,2022-08-20 18:39:05
120,Ilulissat,69.2167,-51.1,42.82,56,75,5.75,GL,2022-08-20 18:39:06
121,Corrales,35.2378,-106.6067,67.91,84,100,14.97,US,2022-08-20 18:39:10
122,Zabol,32.25,67.25,72.39,56,0,7.94,AF,2022-08-20 18:39:10
123,Ribeira Grande,38.5167,-28.7,77.4,78,40,5.75,PT,2022-08-20 18:39:11
124,Tabou,4.423,-7.3528,75.88,81,93,6.31,CI,2022-08-20 18:39:11
125,Solnechnyy,50.7214,136.6319,50.65,88,100,2.53,RU,2022-08-20 18:39:12
126,Ashcroft,50.7165,-121.2859,83.48,40,6,1.03,CA,2022-08-20 18:39:12
127,Mut,36.6439,33.4389,84.81,40,0,2.68,TR,2022-08-20 18:39:13
128,Aden,12.7794,45.0367,88.16,53,37,15.46,YE,2022-08-20 18:39:13
129,Pundaguitan,6.3711,126.1689,83.32,73,100,12.37,PH,2022-08-20 18:39:13
130,Jamestown,42.097,-79.2353,84.02,39,20,8.05,US,2022-08-20 18:34:22
131,Impfondo,1.6381,18.0667,75.9,76,54,0.87,CG,2022-08-20 18:39:14
132,Pangnirtung,66.1451,-65.7125,48.2,76,100,8.05,CA,2022-08-20 18:39:14
133,Isla Mujeres,21.2311,-86.731,91.45,72,67,10.13,MX,2022-08-20 18:40:15
134,Esperance,-33.8667,121.9,51.82,78,5,6.76,AU,2022-08-20 18:40:15
135,Carnarvon,-24.8667,113.6333,66.31,61,0,10.18,AU,2022-08-20 18:40:15
136,Butaritari,3.0707,172.7902,80.42,75,2,4.29,KI,2022-08-20 18:40:16
137,Gainesville,29.6516,-82.3248,96.03,53,0,3.44,US,2022-08-20 18:40:14
138,Thompson,55.7435,-97.8558,84.36,42,40,17.27,CA,2022-08-20 18:40:16
139,Noumea,-22.2763,166.4572,71.01,99,95,8.66,NC,2022-08-20 18:36:11
140,Alta Floresta,-9.8756,-56.0861,91.22,29,0,4.61,BR,2022-08-20 18:40:16
141,Cape Town,-33.9258,18.4232,54.91,73,20,6.91,ZA,2022-08-20 18:38:11
142,Okato,-39.2,173.8833,58.17,95,33,15.01,NZ,2022-08-20 18:40:17
143,Havoysund,70.9963,24.6622,62.83,90,100,7.83,NO,2022-08-20 18:40:17
144,Tynda,55.1667,124.7167,45.39,94,21,2.8,RU,2022-08-20 18:40:18
145,Listvyagi,53.6772,86.951,51.33,87,100,4.12,RU,2022-08-20 18:40:18
146,Kyren,51.6828,102.1408,45.18,92,100,1.48,RU,2022-08-20 18:40:18
147,Najran,17.4924,44.1277,93.85,23,100,1.57,SA,2022-08-20 18:40:19
148,Ancud,-41.8697,-73.8203,54.23,81,100,4.05,CL,2022-08-20 18:40:19
149,Skeldon,5.8833,-57.1333,87.12,61,68,5.19,GY,2022-08-20 18:40:19
150,Avarua,-21.2078,-159.775,77.05,83,75,11.5,CK,2022-08-20 18:40:20
151,Rudbar,30.15,62.6,85.19,15,18,10.89,AF,2022-08-20 18:40:20
152,Alyangula,-13.8483,136.4192,69.96,72,0,12.1,AU,2022-08-20 18:36:21
153,Derbent,42.0678,48.2899,75.43,62,5,9.8,RU,2022-08-20 18:40:21
154,Saeby,57.3319,10.5225,64.33,76,41,9.17,DK,2022-08-20 18:40:21
155,Abu Samrah,35.3029,37.1841,80.56,59,0,11.36,SY,2022-08-20 18:40:21
156,Faya,18.3851,42.4509,72.12,75,48,4.29,SA,2022-08-20 18:40:22
157,Escanaba,45.7453,-87.0646,75.51,84,20,8.05,US,2022-08-20 18:40:06
158,Chastyye,57.2888,54.9728,61.52,73,0,4.63,RU,2022-08-20 18:40:22
159,Rafaela,-31.2503,-61.4867,69.01,11,100,8.01,AR,2022-08-20 18:36:18
160,Port Lincoln,-34.7333,135.8667,51.75,88,45,6.55,AU,2022-08-20 18:40:23
161,Tiksi,71.6872,128.8694,40.41,94,100,14.92,RU,2022-08-20 18:40:23
162,Tiarei,-17.5333,-149.3333,77.02,76,30,16.35,PF,2022-08-20 18:40:23
163,Dondo,-19.6094,34.7431,65.71,78,0,5.35,MZ,2022-08-20 18:37:42
164,Kamenka,51.3223,42.7678,69.58,27,100,14.25,RU,2022-08-20 18:40:24
165,Tigil,57.8,158.6667,58.96,87,100,11.34,RU,2022-08-20 18:40:24
166,Saurimo,-9.6608,20.3916,71.31,20,100,5.14,AO,2022-08-20 18:40:25
167,Marsh Harbour,26.5412,-77.0636,85.5,70,12,10.96,BS,2022-08-20 18:35:31
168,Chapleau,47.8405,-83.4034,68.09,83,75,5.75,CA,2022-08-20 18:40:25
169,Liverpool,53.4106,-2.9779,69.3,60,20,18.41,GB,2022-08-20 18:40:26
170,Bathsheba,13.2167,-59.5167,86.61,79,40,13.8,BB,2022-08-20 18:40:26
171,Omsukchan,62.5333,155.8,46.72,98,100,4.32,RU,2022-08-20 18:40:27
172,Kumluca,36.3703,30.2869,84.67,61,0,4.23,TR,2022-08-20 18:40:27
173,Port Moresby,-9.4431,147.1797,69.22,83,40,3.44,PG,2022-08-20 18:40:27
174,Valleyview,55.0667,-117.2859,75.24,57,99,4.61,CA,2022-08-20 18:40:28
175,Nyimba,-14.5566,30.8149,75.16,32,0,6.93,ZM,2022-08-20 18:40:28
176,Kawalu,-7.3817,108.2082,70.12,93,100,1.05,ID,2022-08-20 18:40:29
177,Bambous Virieux,-20.3428,57.7575,71.85,73,75,13.8,MU,2022-08-20 18:40:29
178,College,64.8569,-147.8028,59.58,62,75,4.61,US,2022-08-20 18:40:29
179,Fairbanks,64.8378,-147.7164,59.59,62,0,4.61,US,2022-08-20 18:40:30
180,Kahului,20.8947,-156.47,82.42,67,20,19.57,US,2022-08-20 18:40:30
181,Tineo,43.3376,-6.4145,65.25,93,87,3.36,ES,2022-08-20 18:41:30
182,Kavaratti,10.5669,72.642,81.46,79,100,14.25,IN,2022-08-20 18:41:31
183,Marzuq,14.4,46.4667,81.97,57,95,6.22,YE,2022-08-20 18:41:31
184,Port Hardy,50.6996,-127.4199,57.2,100,100,0.0,CA,2022-08-20 18:41:31
185,Ennis,52.8436,-8.9864,58.93,94,75,13.8,IE,2022-08-20 18:41:32
186,Sabha,27.0377,14.4283,93.45,16,0,9.37,LY,2022-08-20 18:41:32
187,Arroyo,41.6096,-4.7969,89.15,24,0,4.61,ES,2022-08-20 18:41:33
188,Baie-Comeau,49.2168,-68.1489,74.88,60,0,18.41,CA,2022-08-20 18:41:33
189,Serro,-18.6047,-43.3794,69.35,51,100,8.39,BR,2022-08-20 18:41:33
190,Tarko-Sale,64.9225,77.785,47.1,74,100,16.71,RU,2022-08-20 18:41:34
191,Mocuba,-16.8392,36.9856,70.21,90,12,5.01,MZ,2022-08-20 18:41:34
192,Papar,5.7333,115.9333,75.2,88,75,3.71,MY,2022-08-20 18:41:35
193,Clyde River,70.4692,-68.5914,53.83,58,75,14.97,CA,2022-08-20 18:41:35
194,Ostrovnoy,68.0531,39.5131,66.18,81,6,15.01,RU,2022-08-20 18:41:35
195,Pathein,16.7833,94.7333,78.12,93,100,5.1,MM,2022-08-20 18:41:36
196,Bilma,18.6853,12.9164,96.31,30,92,4.05,NE,2022-08-20 18:41:36
197,Manbij,36.5281,37.9549,81.14,62,0,16.26,SY,2022-08-20 18:41:41
198,Vila Praia De Ancora,41.811,-8.8526,68.72,82,63,12.35,PT,2022-08-20 18:41:41
199,Gigmoto,13.7796,124.39,79.16,85,100,3.42,PH,2022-08-20 18:41:41
200,Amos,48.5669,-78.1162,81.18,58,100,8.86,CA,2022-08-20 18:41:42
201,Leshukonskoye,64.8989,45.7622,61.88,64,4,5.35,RU,2022-08-20 18:41:42
202,Milkovo,54.7167,158.6167,52.5,94,100,1.81,RU,2022-08-20 18:41:43
203,Pimentel,-6.8367,-79.9342,71.89,60,0,12.66,PE,2022-08-20 18:41:43
204,Narsaq,60.9167,-46.05,48.42,97,100,3.76,GL,2022-08-20 18:41:43
205,Chokurdakh,70.6333,147.9167,55.33,73,11,7.63,RU,2022-08-20 18:41:44
206,Victoria,22.2855,114.1577,84.38,88,70,8.99,HK,2022-08-20 18:39:35
207,Porto Novo,6.4965,2.6036,76.82,86,18,6.82,BJ,2022-08-20 18:38:00
208,Chipinge,-20.1883,32.6236,58.46,44,0,0.78,ZW,2022-08-20 18:41:44
209,Butterworth,5.3991,100.3638,82.99,87,20,3.44,MY,2022-08-20 18:41:45
210,Stafford,52.8052,-2.1164,70.72,56,44,15.39,GB,2022-08-20 18:40:06
211,Colac,-38.3333,143.5833,42.08,89,2,2.08,AU,2022-08-20 18:41:45
212,San Jose,37.3394,-121.895,89.92,55,0,4.61,US,2022-08-20 18:36:47
213,East London,-33.0153,27.9116,52.74,71,0,16.11,ZA,2022-08-20 18:41:46
214,Bethel,41.3712,-73.414,89.11,48,20,10.36,US,2022-08-20 18:41:46
215,San Policarpo,12.1791,125.5072,77.56,85,100,4.29,PH,2022-08-20 18:41:47
216,Benghazi,32.1167,20.0667,82.08,73,0,16.06,LY,2022-08-20 18:37:53
217,Meadow Lake,34.8014,-106.5436,66.34,77,100,11.07,US,2022-08-20 18:40:57
218,Laguna,38.421,-121.4238,99.09,27,0,0.0,US,2022-08-20 18:41:47
219,Jha Jha,24.7667,86.3667,79.27,86,39,13.6,IN,2022-08-20 18:41:48
220,Kodiak,57.79,-152.4072,54.91,94,100,11.5,US,2022-08-20 18:41:48
221,Lata,40.1629,-8.3327,73.22,55,0,5.39,PT,2022-08-20 18:41:48
222,La Ronge,55.1001,-105.2842,80.82,50,75,9.22,CA,2022-08-20 18:41:32
223,Port Blair,11.6667,92.75,82.44,83,40,8.05,IN,2022-08-20 18:41:49
224,Hobyo,5.3505,48.5268,76.93,88,100,25.55,SO,2022-08-20 18:41:49
225,Palmas,-10.2128,-48.3603,94.87,21,0,10.36,BR,2022-08-20 18:42:49
226,Yellowknife,62.456,-114.3525,64.92,68,75,15.01,CA,2022-08-20 18:42:50
227,Caravelas,-17.7125,-39.2481,74.39,70,15,7.76,BR,2022-08-20 18:42:50
228,Muskogee,35.5834,-95.3336,93.27,51,0,8.05,US,2022-08-20 18:42:50
229,Grindavik,63.8424,-22.4338,49.95,71,20,24.16,IS,2022-08-20 18:42:51
230,Pinawa,50.1489,-95.8811,78.37,37,0,1.97,CA,2022-08-20 18:42:55
231,Faanui,-16.4833,-151.75,78.21,74,79,15.82,PF,2022-08-20 18:42:56
232,Taltal,-25.4,-70.4833,60.24,72,24,4.47,CL,2022-08-20 18:42:56
233,Nyrob,60.733,56.7202,60.78,82,0,3.62,RU,2022-08-20 18:42:57
234,Camana,-16.6228,-72.7111,63.86,69,0,8.75,PE,2022-08-20 18:42:57
235,Lamu,-2.2717,40.902,73.62,84,30,13.13,KE,2022-08-20 18:42:58
236,Hambantota,6.1241,81.1185,79.14,94,20,8.05,LK,2022-08-20 18:42:58
237,Saint Anthony,45.0205,-93.218,74.14,81,100,11.5,US,2022-08-20 18:42:58
238,Mastic Beach,40.7668,-72.8521,90.48,59,0,12.66,US,2022-08-20 18:42:59
239,Katangli,51.7102,143.2326,54.12,96,93,7.18,RU,2022-08-20 18:42:59
240,Boa Esperanca,-21.09,-45.5658,70.39,45,42,12.55,BR,2022-08-20 18:42:59
241,Ati,13.2154,18.3353,81.86,67,35,2.82,TD,2022-08-20 18:43:00
242,Shingu,33.7333,135.9833,78.19,87,80,4.0,JP,2022-08-20 18:43:00
243,Axim,4.8699,-2.2405,75.11,85,100,6.8,GH,2022-08-20 18:43:01
244,Kununurra,-15.7667,128.7333,71.58,24,6,9.22,AU,2022-08-20 18:43:01
245,Sibolga,1.7427,98.7792,75.45,88,100,1.79,ID,2022-08-20 18:43:01
246,Cap Malheureux,-19.9842,57.6142,71.47,71,20,8.01,MU,2022-08-20 18:43:02
247,Waipawa,-41.4122,175.5153,52.54,81,25,11.97,NZ,2022-08-20 18:43:02
248,Ternate,0.8,127.4,79.29,78,8,5.19,ID,2022-08-20 18:43:02
249,Sao Joao Da Barra,-21.6403,-41.0511,68.09,61,100,18.45,BR,2022-08-20 18:43:03
250,Hasaki,35.7333,140.8333,75.6,94,100,6.31,JP,2022-08-20 18:43:03
251,Oistins,13.0667,-59.5333,86.09,79,40,13.8,BB,2022-08-20 18:43:03
252,Bongandanga,1.5,21.05,74.66,76,28,0.98,CD,2022-08-20 18:43:04
253,Stephenville,32.2207,-98.2023,95.25,38,40,5.75,US,2022-08-20 18:39:00
254,Mandera,3.9366,41.867,87.04,35,100,16.35,KE,2022-08-20 18:43:04
255,Balabac,7.9868,117.0645,81.72,79,52,7.52,PH,2022-08-20 18:43:05
256,Dingle,10.9995,122.6711,76.03,90,100,2.57,PH,2022-08-20 18:43:05
257,Biu,10.6129,12.1946,70.12,83,77,4.85,NG,2022-08-20 18:43:05
258,Foki,56.693,54.3499,60.1,74,0,4.23,RU,2022-08-20 18:43:06
259,Omboue,-1.5746,9.2618,73.81,86,18,7.47,GA,2022-08-20 18:43:06
260,Touros,-5.1989,-35.4608,79.84,63,99,18.99,BR,2022-08-20 18:43:07
261,Aksu,41.1231,80.2644,77.83,39,4,8.32,CN,2022-08-20 18:39:15
262,Altay,47.8667,88.1167,46.81,34,1,5.06,CN,2022-08-20 18:43:09
263,Marawi,7.9986,124.2928,68.86,92,100,4.72,PH,2022-08-20 18:43:09
264,Sembakung,3.8167,117.25,73.44,97,68,1.12,ID,2022-08-20 18:43:09
265,Muncar,-8.4333,114.3333,72.63,83,99,1.97,ID,2022-08-20 18:43:10
266,Bushenyi,-0.5853,30.2114,61.23,92,45,2.37,UG,2022-08-20 18:43:10
267,Praia,14.9215,-23.5087,77.54,94,75,11.5,CV,2022-08-20 18:43:11
268,Moindou,-21.6924,165.677,68.23,88,74,6.22,NC,2022-08-20 18:43:11
269,Jijiga,9.35,42.8,69.46,62,100,9.75,ET,2022-08-20 18:43:11
270,Chingirlau,51.095,54.0814,66.2,45,79,7.67,KZ,2022-08-20 18:44:12
271,Florianopolis,-27.6146,-48.5012,63.63,56,40,8.05,BR,2022-08-20 18:44:19
272,Kloulklubed,7.0419,134.2556,73.9,74,100,3.96,PW,2022-08-20 18:44:19
273,Padre Bernardo,-15.35,-48.5,86.16,20,3,11.41,BR,2022-08-20 18:44:20
274,Klaksvik,62.2266,-6.589,50.92,88,97,20.11,FO,2022-08-20 18:44:20
275,Galle,6.0367,80.217,78.89,86,91,10.8,LK,2022-08-20 18:44:20
276,Santa Maria Do Para,-1.3503,-47.5756,88.32,57,59,2.84,BR,2022-08-20 18:44:21
277,Tessalit,20.1986,1.0114,95.76,27,2,8.37,ML,2022-08-20 18:44:21
278,Awbari,26.5921,12.7805,93.65,14,0,7.31,LY,2022-08-20 18:44:21
279,Poronaysk,49.2167,143.1167,56.44,87,6,9.71,RU,2022-08-20 18:44:22
280,Tomaszow Mazowiecki,51.5313,20.0086,75.56,10,100,6.26,PL,2022-08-20 18:44:22
281,Lebu,-37.6167,-73.65,55.0,81,89,18.81,CL,2022-08-20 18:44:23
282,Saint-Joseph,-21.3667,55.6167,67.21,73,21,8.23,RE,2022-08-20 18:44:25
283,Piacenza,45.0468,9.6994,81.45,57,0,4.14,IT,2022-08-20 18:44:25
284,Bairiki,1.3292,172.9752,75.2,94,75,0.0,KI,2022-08-20 18:44:26
285,Bentiu,9.2333,29.8333,69.85,94,82,0.36,SS,2022-08-20 18:44:26
286,Jian,27.1172,114.9793,81.9,68,100,7.65,CN,2022-08-20 18:44:26
287,Sawang Daen Din,17.4753,103.4575,75.18,99,100,5.5,TH,2022-08-20 18:44:27
288,Bahadurganj,26.2667,87.8167,80.85,83,13,7.61,IN,2022-08-20 18:44:27
289,Paita,-5.0892,-81.1144,70.48,68,47,16.28,PE,2022-08-20 18:44:27
290,Pizarro,4.9533,-77.366,79.84,86,100,10.27,CO,2022-08-20 18:44:28
291,Hofn,64.2539,-15.2082,50.97,81,100,3.24,IS,2022-08-20 18:44:28
292,Mankono,8.0586,-6.1897,73.38,91,100,3.74,CI,2022-08-20 18:44:28
293,Warwick,41.7001,-71.4162,94.14,54,75,20.71,US,2022-08-20 18:39:57
294,Puerto Baquerizo Moreno,-0.9,-89.6,72.59,78,75,12.66,EC,2022-08-20 18:42:35
295,Lorengau,-2.0226,147.2712,79.16,79,100,7.11,PG,2022-08-20 18:44:29
296,Krasnoselkup,65.7,82.4667,43.79,81,6,18.75,RU,2022-08-20 18:44:30
297,Hazorasp,41.3194,61.0742,67.84,17,0,19.84,UZ,2022-08-20 18:44:30
298,Portsmouth,50.799,-1.0913,69.85,77,0,11.01,GB,2022-08-20 18:40:45
299,Nuuk,64.1835,-51.7216,41.61,87,100,6.91,GL,2022-08-20 18:40:51
300,Dingli,35.8614,14.3822,78.96,69,0,19.57,MT,2022-08-20 18:44:31
301,Tono,39.3167,141.5333,65.77,97,19,3.22,JP,2022-08-20 18:44:31
302,Yulara,-25.2406,130.9889,48.2,49,9,9.04,AU,2022-08-20 18:44:31
303,Kudat,6.8837,116.8477,77.29,94,20,0.0,MY,2022-08-20 18:44:32
304,Saldanha,-33.0117,17.9442,48.25,67,0,10.87,ZA,2022-08-20 18:44:32
305,Ormara,25.2088,64.6357,81.55,87,100,11.48,PK,2022-08-20 18:44:32
306,Demir Kapija,41.405,22.2489,69.12,96,100,3.94,MK,2022-08-20 18:44:33
307,San Ramon,37.7799,-121.978,90.25,43,0,6.91,US,2022-08-20 18:41:48
308,Grand-Santi,4.25,-54.3833,94.35,37,100,2.46,GF,2022-08-20 18:44:33
309,Mehamn,71.0357,27.8492,69.71,88,20,18.41,NO,2022-08-20 18:44:37
310,Pauini,-7.7136,-66.9764,88.29,27,39,4.52,BR,2022-08-20 18:44:37
311,Sakakah,29.9697,40.2064,94.57,17,0,8.97,SA,2022-08-20 18:44:37
312,Upernavik,72.7868,-56.1549,39.78,64,10,4.7,GL,2022-08-20 18:44:38
313,Sinnamary,5.3833,-52.95,84.42,69,93,9.28,GF,2022-08-20 18:44:38
314,Roma,43.2128,-75.4557,90.63,40,40,9.22,US,2022-08-20 18:39:40
315,Roseburg,43.2165,-123.3417,79.5,77,100,0.0,US,2022-08-20 18:44:38
316,Prince Rupert,54.3161,-130.3201,57.29,97,100,8.05,CA,2022-08-20 18:41:10
317,Broome,42.2506,-75.833,88.2,49,40,6.91,US,2022-08-20 18:45:39
318,Basco,20.4487,121.9702,84.56,69,37,1.92,PH,2022-08-20 18:45:39
319,Polson,47.6936,-114.1632,87.22,36,25,3.78,US,2022-08-20 18:45:40
320,Newport,51.5877,-2.9984,69.03,72,5,16.78,GB,2022-08-20 18:44:11
321,Muros,42.7762,-9.0603,82.69,66,61,10.42,ES,2022-08-20 18:45:40
322,Saskylakh,71.9167,114.0833,39.27,78,100,7.14,RU,2022-08-20 18:45:40
323,Qinggang,46.6833,126.0833,58.05,73,100,15.17,CN,2022-08-20 18:45:41
324,Jalu,29.0331,21.5482,89.37,33,0,18.7,LY,2022-08-20 18:45:41
325,Lavrentiya,65.5833,-171.0,44.94,82,64,9.13,RU,2022-08-20 18:45:41
326,Yarmouth,41.7057,-70.2286,88.14,64,0,9.22,US,2022-08-20 18:45:42
327,Saraza,8.7356,117.78,79.23,84,88,2.26,PH,2022-08-20 18:45:42
328,Lumeje,-11.55,20.7833,67.8,20,4,6.69,AO,2022-08-20 18:45:42
329,Limon,10.0,-83.0333,87.06,74,0,8.05,CR,2022-08-20 18:45:43
330,Jiancheng,30.391,104.5491,80.67,84,100,1.1,CN,2022-08-20 18:45:43
331,Kadoma,34.7333,135.5833,80.58,88,75,0.0,JP,2022-08-20 18:45:44
332,Belmonte,-15.8631,-38.8828,75.92,64,51,13.51,BR,2022-08-20 18:45:44
333,Berezovyy,51.6667,135.7,51.76,89,100,1.32,RU,2022-08-20 18:45:44
334,Kayerkan,69.3497,87.7602,42.53,75,13,13.31,RU,2022-08-20 18:45:45
335,Carlsbad,33.1581,-117.3506,86.58,72,40,11.99,US,2022-08-20 18:42:05
336,La Asuncion,11.0333,-63.8628,89.33,62,100,9.22,VE,2022-08-20 18:45:45
337,Honiara,-9.4333,159.95,75.51,83,100,5.86,SB,2022-08-20 18:43:11
338,Ust-Ilimsk,58.0006,102.6619,47.19,98,100,4.65,RU,2022-08-20 18:45:46
339,Pittsburg,38.028,-121.8847,91.89,39,0,1.99,US,2022-08-20 18:44:18
340,Selty,57.3132,52.1345,57.27,75,1,3.78,RU,2022-08-20 18:45:46
341,Hamilton,39.1834,-84.5333,86.9,65,40,11.5,US,2022-08-20 18:44:35
342,Ketchikan,55.3422,-131.6461,66.67,72,0,9.22,US,2022-08-20 18:45:47
343,Nalut,30.3333,10.85,93.18,25,0,17.34,LY,2022-08-20 18:45:47
344,Simao,22.7886,100.9748,66.65,99,100,2.55,CN,2022-08-20 18:45:48
345,Itaqui,-29.1253,-56.5531,61.68,44,0,6.38,BR,2022-08-20 18:45:48
346,Jaru,-10.4389,-62.4664,88.74,22,0,5.5,BR,2022-08-20 18:45:48
347,Elko,41.0002,-115.5012,79.05,46,38,4.0,US,2022-08-20 18:45:49
348,Basqal,40.7552,48.391,65.93,26,5,8.59,AZ,2022-08-20 18:45:49
349,Nishihara,26.1842,127.7558,83.48,84,20,9.22,JP,2022-08-20 18:45:49
350,Egvekinot,66.3167,-179.1667,42.33,74,62,1.21,RU,2022-08-20 18:45:50
351,Nha Trang,12.25,109.1833,78.8,87,100,4.54,VN,2022-08-20 18:45:50
352,Altagracia De Orituco,9.8601,-66.3814,82.6,74,96,3.78,VE,2022-08-20 18:45:50
353,Lujiang,31.2581,117.2817,81.5,90,97,0.45,CN,2022-08-20 18:45:51
354,Santa Maria,-29.6842,-53.8069,60.1,44,0,9.22,BR,2022-08-20 18:42:20
355,Nago,26.5881,127.9761,82.83,83,100,8.84,JP,2022-08-20 18:45:51
356,Lae,-6.7221,146.9847,73.04,90,100,4.41,PG,2022-08-20 18:45:52
357,Sola,-13.8833,167.55,78.98,68,27,16.2,VU,2022-08-20 18:45:52
358,Uni,57.7535,51.4923,58.32,67,0,5.32,RU,2022-08-20 18:45:52
359,Ambon,-3.6954,128.1814,75.34,94,75,4.61,ID,2022-08-20 18:45:53
360,Guasdualito,7.2424,-70.7324,82.36,78,40,0.0,VE,2022-08-20 18:45:53
361,Sorsk,54.0033,90.2467,41.97,91,98,4.41,RU,2022-08-20 18:45:53
362,Kailua,21.4022,-157.7394,82.38,70,40,12.66,US,2022-08-20 18:45:54
363,Kalmunai,7.4167,81.8167,81.32,80,95,5.23,LK,2022-08-20 18:46:54
364,Roebourne,-20.7833,117.1333,68.68,29,0,12.57,AU,2022-08-20 18:46:54
365,Odesskoye,54.2111,72.9651,52.57,74,25,6.85,RU,2022-08-20 18:46:55
366,Biak,-0.9131,122.8766,72.86,79,76,5.93,ID,2022-08-20 18:46:55
367,Prince George,53.9166,-122.753,72.25,72,0,8.05,CA,2022-08-20 18:46:56
368,Chulman,56.8479,124.9104,44.89,93,60,2.75,RU,2022-08-20 18:46:56
369,Saint Paul,44.9444,-93.0933,75.72,77,100,10.36,US,2022-08-20 18:46:56
370,San Quintin,30.4833,-115.95,72.88,70,10,8.48,MX,2022-08-20 18:46:57
371,Torbay,47.6666,-52.7314,73.89,71,75,14.97,CA,2022-08-20 18:45:23
372,Nakhon Si Thammarat,8.25,100.0,77.95,84,100,8.52,TH,2022-08-20 18:46:58
373,Matay,28.419,30.7792,92.86,23,0,11.59,EG,2022-08-20 18:46:58
374,Hurghada,27.2574,33.8129,96.84,15,0,9.22,EG,2022-08-20 18:42:31
375,Mancheral,18.8667,79.4333,78.33,85,100,7.49,IN,2022-08-20 18:46:58
376,Buala,-8.145,159.5921,78.6,82,91,8.63,SB,2022-08-20 18:46:59
377,Yuanping,38.7153,112.7575,65.66,88,80,1.39,CN,2022-08-20 18:46:59
378,Chifeng,42.2683,118.9636,66.72,78,67,10.07,CN,2022-08-20 18:46:59
379,Kiomboi,-4.2667,34.3667,71.96,25,38,3.51,TZ,2022-08-20 18:47:00
380,Lumby,50.2498,-118.969,79.36,58,92,1.14,CA,2022-08-20 18:47:00
381,Tala,30.6803,30.9429,79.25,57,0,8.41,EG,2022-08-20 18:47:01
382,Carmen,18.6333,-91.8333,87.46,62,100,5.03,MX,2022-08-20 18:45:53
383,Port Arthur,38.8,121.2667,68.22,63,91,6.08,CN,2022-08-20 18:44:23
384,Beian,63.6559,9.5683,57.29,88,75,4.61,NO,2022-08-20 18:47:01
385,Aykhal,66.0,111.5,37.4,88,100,4.36,RU,2022-08-20 18:47:01
386,Sturgeon Bay,44.8342,-87.377,73.36,78,75,8.05,US,2022-08-20 18:42:50
387,Comodoro Rivadavia,-45.8667,-67.5,46.26,81,40,5.75,AR,2022-08-20 18:47:02
388,Auki,-8.7676,160.7034,75.69,90,100,4.74,SB,2022-08-20 18:47:02
389,Berlevag,70.8578,29.0864,69.75,78,100,14.97,NO,2022-08-20 18:47:03
390,Takoradi,4.8845,-1.7554,74.82,84,63,8.57,GH,2022-08-20 18:47:03
391,Inuvik,68.3499,-133.7218,47.26,93,100,3.44,CA,2022-08-20 18:47:03
392,Vostok,46.4856,135.8833,48.33,93,14,7.61,RU,2022-08-20 18:47:04
393,Alofi,-19.0595,-169.9187,60.69,100,2,1.14,NU,2022-08-20 18:47:04
394,Torata,-17.0769,-70.8433,69.87,11,0,9.64,PE,2022-08-20 18:47:04
395,Tuzha,57.6062,47.936,58.01,62,0,2.82,RU,2022-08-20 18:47:05
396,Kiunga,-6.1219,141.2906,70.54,97,100,2.01,PG,2022-08-20 18:47:05
397,Kholodnyy,62.7167,147.95,47.44,90,100,1.28,RU,2022-08-20 18:47:06
398,Hailun,47.45,126.9333,52.81,69,59,3.02,CN,2022-08-20 18:47:06
399,Owando,-0.4819,15.8999,76.77,64,9,2.91,CG,2022-08-20 18:47:06
400,Coruripe,-10.1256,-36.1756,75.54,69,1,12.88,BR,2022-08-20 18:47:07
401,Agucadoura,41.4318,-8.7804,87.31,86,23,15.95,PT,2022-08-20 18:47:07
402,Lashio,22.9333,97.75,70.21,98,100,1.68,MM,2022-08-20 18:47:08
403,Doha,25.2867,51.5333,97.11,59,0,3.44,QA,2022-08-20 18:47:08
404,Zyryanka,65.75,150.85,55.24,66,8,9.42,RU,2022-08-20 18:47:08
405,Matagami,49.7502,-77.6328,68.11,94,100,3.44,CA,2022-08-20 18:47:09
406,Manohar Thana,24.24,76.8018,76.26,91,100,6.67,IN,2022-08-20 18:47:09
407,Puro,12.4841,123.3827,79.47,82,90,4.99,PH,2022-08-20 18:47:09
408,Coihueco,-36.6167,-71.8333,63.34,55,0,16.11,CL,2022-08-20 18:45:36
409,Lompoc,34.6391,-120.4579,83.01,80,20,5.75,US,2022-08-20 18:47:10
410,Agadir,30.4202,-9.5982,79.25,46,100,4.18,MA,2022-08-20 18:47:10
411,Ust-Uda,54.1742,103.0304,46.99,94,100,3.96,RU,2022-08-20 18:48:11
412,Vila Franca Do Campo,37.7167,-25.4333,73.81,73,45,4.16,PT,2022-08-20 18:48:11
413,Yashkul,46.1711,45.3435,76.71,35,99,25.14,RU,2022-08-20 18:48:11
414,Gat,31.61,34.7642,81.81,100,0,3.56,IL,2022-08-20 18:45:01
415,Kikwit,-5.041,18.8162,83.5,45,91,3.69,CD,2022-08-20 18:48:12
416,Beringovskiy,63.05,179.3167,47.12,59,4,5.06,RU,2022-08-20 18:48:12
417,Bardiyah,31.7561,25.0865,81.59,69,0,14.41,LY,2022-08-20 18:48:13
418,Luangwa,-15.6167,30.4167,74.41,31,0,3.15,ZM,2022-08-20 18:48:13
419,Chulym,55.0997,80.9572,55.15,67,100,4.79,RU,2022-08-20 18:48:13
420,Aksarka,66.5606,67.7975,52.32,56,100,5.14,RU,2022-08-20 18:48:14
421,Nizwa,22.9333,57.5333,90.48,43,100,6.82,OM,2022-08-20 18:48:14
422,Mezhdurechensk,53.6942,88.0603,49.1,91,100,3.04,RU,2022-08-20 18:48:15
423,Ahipara,-35.1667,173.1667,55.06,92,10,5.7,NZ,2022-08-20 18:48:15
424,Muisne,0.6,-80.0333,77.54,72,100,10.69,EC,2022-08-20 18:48:15
425,Severnyy,50.677,36.5532,68.04,60,0,6.71,RU,2022-08-20 18:48:17
426,Shalinskoye,55.7228,93.7594,47.8,96,100,5.66,RU,2022-08-20 18:48:20
427,Khandbari,27.3747,87.2039,72.28,93,60,0.81,NP,2022-08-20 18:48:20
428,Timra,62.487,17.3257,64.67,94,100,6.91,SE,2022-08-20 18:48:21
429,Thaba-Tseka,-29.522,28.6084,32.65,49,0,3.2,LS,2022-08-20 18:48:21
430,Cabo San Lucas,22.8909,-109.9124,94.6,66,100,8.99,MX,2022-08-20 18:43:25
431,Ciudad Bolivar,8.1222,-63.5497,89.28,58,94,6.58,VE,2022-08-20 18:48:22
432,Cockburn Town,21.4612,-71.1419,85.96,66,40,11.5,TC,2022-08-20 18:48:22
433,Pisco,-13.7,-76.2167,63.01,77,40,9.22,PE,2022-08-20 18:48:22
434,Oussouye,12.485,-16.5469,82.58,85,100,8.19,SN,2022-08-20 18:48:23
435,Iquique,-20.2208,-70.1431,60.84,65,9,5.55,CL,2022-08-20 18:48:23
436,Dukat,62.55,155.55,45.23,98,100,4.23,RU,2022-08-20 18:48:23
437,Caxito,-8.5785,13.6643,69.26,82,80,4.14,AO,2022-08-20 18:48:24
438,Cap-Aux-Meules,47.3821,-61.8597,73.45,64,0,13.8,CA,2022-08-20 18:48:24
439,Maniwaki,46.3834,-75.966,86.14,47,12,6.91,CA,2022-08-20 18:48:26
440,Flinders,-34.5833,150.8552,49.05,76,4,10.07,AU,2022-08-20 18:48:26
441,Asyut,27.181,31.1837,95.18,20,4,6.08,EG,2022-08-20 18:48:27
442,Akersberga,59.4794,18.2997,70.88,91,100,4.38,SE,2022-08-20 18:48:27
443,Tera,14.0078,0.7531,80.01,67,100,5.91,NE,2022-08-20 18:48:27
444,Lotofaga,-13.9764,-171.8578,64.18,60,0,6.38,WS,2022-08-20 18:48:28
445,Guerrero Negro,27.9769,-114.0611,78.98,61,59,5.99,MX,2022-08-20 18:48:28
446,Cayenne,4.9333,-52.3333,86.04,66,0,6.91,GF,2022-08-20 18:48:29
447,Rondonopolis,-16.4708,-54.6356,82.69,29,55,5.93,BR,2022-08-20 18:48:29
448,Gorontalo,0.5412,123.0595,73.76,90,100,5.03,ID,2022-08-20 18:48:29
449,Sibiti,-3.6819,13.3499,80.46,45,86,1.48,CG,2022-08-20 18:48:30
450,Mihailesti,44.3267,25.9083,85.82,50,21,9.42,RO,2022-08-20 18:48:30
451,Umm Kaddadah,13.6017,26.6876,78.31,61,99,2.91,SD,2022-08-20 18:48:31
452,Dong Hoi,17.4833,106.6,77.7,87,100,6.71,VN,2022-08-20 18:48:31
453,Tateyama,34.9833,139.8667,77.09,93,100,6.15,JP,2022-08-20 18:48:31
454,Miri,4.4148,114.0089,75.34,100,40,6.91,MY,2022-08-20 18:48:32
455,Hammerfest,70.6634,23.6821,66.65,88,40,5.75,NO,2022-08-20 18:49:32
456,Pochutla,15.7432,-96.4661,93.81,49,59,7.09,MX,2022-08-20 18:49:33
457,Ginda,30.6945,78.4932,63.36,83,75,5.26,IN,2022-08-20 18:49:33
458,Verkhnyaya Inta,65.9811,60.3094,63.23,83,100,13.4,RU,2022-08-20 18:49:33
459,Xining,36.6167,101.7667,62.22,84,100,1.52,CN,2022-08-20 18:49:34
460,Mariental,-24.6333,17.9667,56.97,20,0,10.83,NA,2022-08-20 18:49:34
461,Krutikha,53.9599,81.2093,56.52,64,100,3.49,RU,2022-08-20 18:49:34
462,Moron,-34.6534,-58.6198,65.89,26,5,6.53,AR,2022-08-20 18:49:35
463,Maceio,-9.6658,-35.7353,80.04,61,40,16.11,BR,2022-08-20 18:45:49
464,Mwinilunga,-11.7358,24.4293,65.89,25,0,4.43,ZM,2022-08-20 18:49:35
465,Ronneby,56.21,15.276,70.3,73,100,1.14,SE,2022-08-20 18:49:36
466,Howard,39.2504,-76.933,90.45,52,5,1.99,US,2022-08-20 18:49:37
467,Barranca,-10.75,-77.7667,65.46,70,18,11.39,PE,2022-08-20 18:49:37
468,Grandview,38.8858,-94.533,85.91,61,40,9.22,US,2022-08-20 18:45:00
469,Birao,10.2849,22.7882,71.6,94,100,2.84,CF,2022-08-20 18:49:40
470,Matnog,12.5878,124.0875,80.67,79,100,3.6,PH,2022-08-20 18:49:40
471,Gamba,-2.65,10.0,72.34,88,51,6.49,GA,2022-08-20 18:49:41
472,Ust-Kuyga,70.0167,135.6,53.06,84,96,3.98,RU,2022-08-20 18:49:41
473,Bambanglipuro,-7.95,110.2833,76.06,76,100,10.58,ID,2022-08-20 18:49:42
474,Moyale,3.5167,39.0584,73.9,47,24,11.01,KE,2022-08-20 18:49:42
475,Shelburne,44.0787,-80.2041,81.75,32,100,8.21,CA,2022-08-20 18:49:42
476,Husavik,66.0449,-17.3389,45.93,96,100,19.1,IS,2022-08-20 18:49:43
477,Berdigestyakh,62.0989,126.6992,47.21,99,100,4.07,RU,2022-08-20 18:49:43
478,Shevchenkove,49.6959,37.1735,70.34,52,100,7.83,UA,2022-08-20 18:49:44
479,Yar-Sale,66.8333,70.8333,46.65,62,100,3.42,RU,2022-08-20 18:49:44
480,Belaya Gora,68.5333,146.4167,58.69,77,99,5.53,RU,2022-08-20 18:49:44
481,Chelmza,53.1846,18.6047,77.29,78,99,5.28,PL,2022-08-20 18:49:45
482,Kijang,35.2442,129.2139,78.53,86,100,9.22,KR,2022-08-20 18:49:45
483,Morant Bay,17.8815,-76.4093,89.22,65,1,11.05,JM,2022-08-20 18:49:45
484,La Mira,18.035,-102.3266,90.0,52,54,8.61,MX,2022-08-20 18:49:46
485,Nata,8.3333,-80.5167,87.67,63,100,3.06,PA,2022-08-20 18:49:46
486,Halifax,44.6453,-63.5724,86.45,45,54,3.0,CA,2022-08-20 18:47:11
487,Sistranda,63.7256,8.834,57.16,88,79,9.71,NO,2022-08-20 18:49:47
488,Huarmey,-10.0681,-78.1522,67.96,70,3,11.36,PE,2022-08-20 18:49:48
489,Sovetskiy,61.3614,63.5842,58.01,49,99,2.15,RU,2022-08-20 18:49:48
490,Bilibino,68.0546,166.4372,49.42,57,0,2.93,RU,2022-08-20 18:49:49
491,Saint-Francois,46.4154,3.9054,71.04,60,0,4.61,FR,2022-08-20 18:45:08
492,Parrita,9.5201,-84.3225,84.25,70,81,6.31,CR,2022-08-20 18:49:49
493,Baruun-Urt,46.6806,113.2792,50.86,74,60,12.08,MN,2022-08-20 18:49:50
494,Mocajuba,-2.5842,-49.5072,94.53,35,87,1.66,BR,2022-08-20 18:49:50
495,Kruisfontein,-34.0033,24.7314,48.88,81,15,11.88,ZA,2022-08-20 18:49:50
496,Ampanihy,-24.7,44.75,69.21,86,0,10.31,MG,2022-08-20 18:49:51
497,Antofagasta,-23.65,-70.4,58.28,70,45,6.58,CL,2022-08-20 18:49:51
498,Suntar,62.1444,117.6319,45.54,92,97,0.04,RU,2022-08-20 18:49:51
499,Severo-Yeniseyskiy,60.3725,93.0408,47.57,93,100,7.43,RU,2022-08-20 18:50:52
500,Souillac,-20.5167,57.5167,71.98,73,75,13.8,MU,2022-08-20 18:50:52
501,Macusani,-14.0833,-70.4333,50.77,33,5,4.0,PE,2022-08-20 18:50:53
502,Tommot,58.9564,126.2925,45.75,96,55,1.68,RU,2022-08-20 18:50:53
503,Bensheim,49.6803,8.6161,77.9,46,0,4.23,DE,2022-08-20 18:50:53
504,Biograd Na Moru,43.9433,15.4519,79.75,65,0,11.99,HR,2022-08-20 18:50:54
505,Tsabong,-26.0217,22.401,53.73,36,0,8.9,BW,2022-08-20 18:50:54
506,North Bend,43.4065,-124.2243,72.16,81,0,6.91,US,2022-08-20 18:50:55
507,Atasu,48.6814,71.6433,55.74,46,69,8.32,KZ,2022-08-20 18:50:55
508,Fremont,37.5483,-121.9886,92.8,56,0,6.91,US,2022-08-20 18:46:19
509,Ambo,-10.1308,-76.2047,71.13,52,41,9.08,PE,2022-08-20 18:50:56
510,Andapa,-14.65,49.65,60.46,98,37,1.34,MG,2022-08-20 18:50:56
511,Talnakh,69.4865,88.3972,43.21,63,22,7.38,RU,2022-08-20 18:50:57
512,Khani,41.9563,42.9566,67.57,51,90,6.44,GE,2022-08-20 18:50:57
513,Gangawati,15.4333,76.5333,75.13,81,100,15.9,IN,2022-08-20 18:50:57
514,Filadelfia,39.9523,-75.1638,94.08,41,40,8.05,US,2022-08-20 18:50:15
515,Rio Gallegos,-51.6226,-69.2181,48.25,46,20,6.91,AR,2022-08-20 18:50:58
516,Oranjemund,-28.55,16.4333,54.55,74,0,18.39,NA,2022-08-20 18:50:58
517,Ballina,-28.8667,153.5667,53.78,82,100,6.08,AU,2022-08-20 18:50:59
518,Moussoro,13.6408,16.4901,85.82,56,100,12.39,TD,2022-08-20 18:50:59
519,Jaypur,18.85,82.5833,71.62,98,100,7.29,IN,2022-08-20 18:51:00
520,Barmer,25.75,71.3833,81.37,77,100,14.38,IN,2022-08-20 18:51:00
521,Berlin,52.5244,13.4105,69.98,92,75,4.0,DE,2022-08-20 18:46:07
522,Juegang,32.3174,121.1855,82.9,89,100,5.35,CN,2022-08-20 18:51:00
523,Valverde Del Camino,37.5751,-6.7543,82.42,27,0,6.98,ES,2022-08-20 18:51:01
524,Baghdad,33.3406,44.4009,98.51,26,33,4.61,IQ,2022-08-20 18:46:44
525,Minudasht,37.2289,55.3747,81.97,54,0,13.8,IR,2022-08-20 18:51:01
526,Bundibugyo,0.7414,30.0417,66.38,91,85,2.98,UG,2022-08-20 18:51:02
527,Sandpoint,48.2766,-116.5533,89.85,48,28,3.0,US,2022-08-20 18:51:02
528,Boa Vista,2.8197,-60.6733,93.18,43,40,5.75,BR,2022-08-20 18:51:02
529,Sur,22.5667,59.5289,90.16,57,100,15.57,OM,2022-08-20 18:51:03
530,Kindu,-2.95,25.95,73.13,77,100,4.79,CD,2022-08-20 18:51:03
531,Iskateley,67.6803,53.1512,63.34,79,97,9.82,RU,2022-08-20 18:51:04
532,Mehkar,20.1508,76.569,73.33,91,100,11.92,IN,2022-08-20 18:51:04
533,New Glasgow,45.5834,-62.6486,73.78,44,9,7.85,CA,2022-08-20 18:51:04
534,Sortland,68.6949,15.4162,62.38,90,100,3.27,NO,2022-08-20 18:51:05
535,Ignacio Zaragoza,28.3833,-107.2167,75.61,46,47,10.16,MX,2022-08-20 18:51:05
536,Lekoni,-1.5843,14.2591,80.87,53,24,4.74,GA,2022-08-20 18:51:06
537,Goderich,43.7501,-81.7165,84.52,48,100,12.66,CA,2022-08-20 18:51:06
538,Bonavista,48.6499,-53.1147,61.84,90,76,18.52,CA,2022-08-20 18:51:06
539,Mitu,1.1983,-70.1733,73.49,97,100,3.24,CO,2022-08-20 18:51:07
540,Gao,16.6362,1.637,89.74,42,43,7.38,ML,2022-08-20 18:51:07
541,Loei,17.4167,101.5,69.12,98,100,3.98,TH,2022-08-20 18:51:07
542,Wicklow,53.0,-6.4167,56.01,69,7,11.52,IE,2022-08-20 18:51:08
543,Chowchilla,37.123,-120.2602,106.02,29,0,3.44,US,2022-08-20 18:51:08
544,Namatanai,-3.6667,152.4333,77.9,82,69,6.64,PG,2022-08-20 18:51:09
545,Thinadhoo,0.5333,72.9333,81.27,78,82,7.78,MV,2022-08-20 18:51:09
546,Luau,-10.7073,22.2247,70.92,20,0,5.23,AO,2022-08-20 18:51:10
547,Zemio,5.0314,25.1361,69.75,94,98,2.19,CF,2022-08-20 18:52:10
548,Sartell,45.6216,-94.2069,71.38,78,100,6.91,US,2022-08-20 18:52:11
549,Bayir,37.2687,28.2167,75.72,43,0,1.19,TR,2022-08-20 18:52:11
550,Conde,-7.2597,-34.9075,80.06,65,75,19.57,BR,2022-08-20 18:52:11
551,Evensk,61.95,159.2333,52.18,90,100,12.21,RU,2022-08-20 18:52:12
552,Valdivia,-39.8142,-73.2459,57.29,75,100,4.97,CL,2022-08-20 18:52:12
553,Daru,-9.0763,143.2092,74.95,82,11,11.27,PG,2022-08-20 18:52:12
554,Ouallam,14.3188,2.0866,83.82,57,100,5.68,NE,2022-08-20 18:52:13
555,Rutland,43.6167,-73.0162,89.71,44,0,4.61,US,2022-08-20 18:52:13
556,Padang,-0.9492,100.3543,76.32,92,100,3.13,ID,2022-08-20 18:52:14
557,Zhezkazgan,47.8043,67.7144,57.02,50,5,9.01,KZ,2022-08-20 18:52:14
558,Wakema,16.6,95.1833,78.93,90,100,7.61,MM,2022-08-20 18:52:14
559,Cabedelo,-6.9811,-34.8339,81.27,73,35,18.61,BR,2022-08-20 18:52:15
560,Dehloran,32.6941,47.2679,101.64,9,0,7.99,IR,2022-08-20 18:52:15
561,Lakes Entrance,-37.8811,147.981,38.16,85,17,5.53,AU,2022-08-20 18:52:15
562,Nioro,13.35,-15.75,78.17,88,49,6.29,GM,2022-08-20 18:52:16
563,Dicabisagan,17.0818,122.4157,77.23,89,100,5.28,PH,2022-08-20 18:52:16
564,Quatre Cocos,-20.2078,57.7625,71.71,74,30,15.82,MU,2022-08-20 18:52:17
565,Kyabe,9.4515,18.9449,74.35,94,100,4.07,TD,2022-08-20 18:52:17
566,Hay River,60.8156,-115.7999,66.18,55,10,13.8,CA,2022-08-20 18:52:17
567,Zhigansk,66.7697,123.3711,45.1,90,100,9.31,RU,2022-08-20 18:52:18
568,Dire,12.2833,-10.9667,75.33,92,100,1.43,ML,2022-08-20 18:52:18
569,Opuwo,-18.0607,13.84,61.83,15,62,11.56,NA,2022-08-20 18:52:18
570,Borogontsy,62.6683,131.1683,50.81,99,100,4.38,RU,2022-08-20 18:52:19
571,Fukue,32.6881,128.8419,82.9,83,73,6.2,JP,2022-08-20 18:52:19
572,Pontes E Lacerda,-15.2261,-59.3353,75.07,28,0,5.3,BR,2022-08-20 18:52:19
573,Strezhevoy,60.7333,77.5889,43.83,90,99,8.63,RU,2022-08-20 18:52:20
574,Rabaul,-4.1967,152.1721,78.84,80,78,12.33,PG,2022-08-20 18:52:20
575,Mackay,-21.15,149.2,54.68,85,1,8.52,AU,2022-08-20 18:52:21
576,Rocha,-34.4833,-54.3333,59.05,46,0,7.96,UY,2022-08-20 18:52:21
577,Novyy Urengoy,66.0833,76.6333,43.39,83,12,10.51,RU,2022-08-20 18:52:21
578,Pangkalanbuun,-2.6833,111.6167,74.07,93,100,1.34,ID,2022-08-20 18:52:22
579,Pangai,-19.8,-174.35,69.91,78,20,6.91,TO,2022-08-20 18:52:22
580,Beltangadi,13.9833,75.3,68.23,96,100,4.79,IN,2022-08-20 18:52:26
581,Sioux Lookout,50.1001,-91.917,66.27,55,40,2.3,CA,2022-08-20 18:52:26
582,Urucara,-2.5364,-57.76,100.09,23,18,3.89,BR,2022-08-20 18:52:27
583,Asau,46.4333,26.4,72.52,72,16,1.43,RO,2022-08-20 18:52:27
584,Road Town,18.4167,-64.6167,87.89,70,75,11.5,VG,2022-08-20 18:52:27
585,Calamar,10.2511,-74.9146,90.41,60,100,6.33,CO,2022-08-20 18:52:28
586,Matongo,-2.3833,34.0833,70.99,63,5,5.39,TZ,2022-08-20 18:52:28
587,Botro,7.8525,-5.3106,74.68,87,99,3.42,CI,2022-08-20 18:52:28
588,Vladeni,47.7167,26.5167,74.95,74,0,5.75,RO,2022-08-20 18:52:29
589,Vyshhorod,50.5848,30.4898,70.93,96,97,6.64,UA,2022-08-20 18:52:29
590,Codrington,-38.2667,141.9667,37.36,85,5,7.81,AU,2022-08-20 18:52:29
591,Przasnysz,53.0191,20.8803,76.37,51,100,8.55,PL,2022-08-20 18:52:30
592,Gorom-Gorom,14.4439,-0.2361,81.48,61,100,9.35,BF,2022-08-20 18:52:30
593,Harindanga,22.0383,88.3214,81.21,87,69,10.8,IN,2022-08-20 18:52:31
594,Andenes,69.3143,16.1194,57.92,94,40,4.61,NO,2022-08-20 18:53:31
595,Kafanchan,9.5833,8.3,68.05,94,6,1.99,NG,2022-08-20 18:53:32
596,Catamarca,-28.4696,-65.7852,72.59,18,77,1.99,AR,2022-08-20 18:53:32
597,Artyom,40.4723,50.333,82.54,55,0,19.39,AZ,2022-08-20 18:53:32
598,Rovnoye,50.7765,46.0509,69.39,32,97,12.88,RU,2022-08-20 18:53:33
599,Klichka,50.4457,117.996,43.95,57,100,3.74,RU,2022-08-20 18:53:33
600,Vung Tau,10.346,107.0843,80.29,83,100,12.1,VN,2022-08-20 18:53:34
601,Terrace,54.5163,-128.6035,71.51,60,0,0.0,CA,2022-08-20 18:53:34
602,Clarence Town,-32.5833,151.7833,54.86,77,100,3.76,AU,2022-08-20 18:53:34
603,Yining,29.0361,114.5636,80.26,71,100,2.59,CN,2022-08-20 18:53:35
604,Caranavi,-15.8167,-67.55,74.95,31,0,4.97,BO,2022-08-20 18:53:35
605,Mandalgovi,45.7625,106.2708,55.81,70,0,22.59,MN,2022-08-20 18:53:35
606,Kuytun,54.3419,101.5036,47.3,96,100,8.77,RU,2022-08-20 18:53:36
607,Saint-Augustin,51.226,-58.6502,69.12,63,100,11.54,CA,2022-08-20 18:53:36
608,Rosetown,51.5501,-108.0014,87.78,20,24,10.36,CA,2022-08-20 18:53:36
609,Taoudenni,22.6783,-3.9836,105.78,11,92,6.17,ML,2022-08-20 18:53:37
610,Vila,42.0304,-8.1588,63.48,49,84,4.07,PT,2022-08-20 18:53:37
611,Rio Grande,-32.035,-52.0986,62.71,59,0,10.56,BR,2022-08-20 18:53:42
612,Carthage,36.8611,10.3316,81.93,54,20,12.66,TN,2022-08-20 18:50:07
613,Luderitz,-26.6481,15.1594,62.1,48,0,21.99,NA,2022-08-20 18:53:44
614,Banfora,10.6333,-4.7667,73.74,92,100,1.3,BF,2022-08-20 18:53:44
615,Ranong,9.9658,98.6348,79.48,86,98,11.92,TH,2022-08-20 18:53:49
616,Chengam,12.3,78.8,78.71,73,100,5.37,IN,2022-08-20 18:53:49
617,Sikasso,10.9167,-7.0,72.59,93,100,2.24,ML,2022-08-20 18:53:49
618,Zhengjiatun,43.5064,123.5064,61.34,89,77,11.39,CN,2022-08-20 18:53:50
619,Vanimo,-2.6741,141.3028,75.22,88,95,3.11,PG,2022-08-20 18:53:50
620,Pristina,42.6727,21.1669,67.6,86,0,3.44,XK,2022-08-20 18:50:32
621,Goksun,38.021,36.4973,68.74,72,3,5.21,TR,2022-08-20 18:53:51
622,Sumkino,58.1108,68.3244,49.55,90,44,6.51,RU,2022-08-20 18:53:51
623,Harer,9.3094,42.1258,63.39,74,99,2.37,ET,2022-08-20 18:53:51
624,Uniao,-4.5858,-42.8642,96.94,21,74,2.84,BR,2022-08-20 18:51:17
625,Russell,32.3502,-85.1999,91.38,58,0,0.0,US,2022-08-20 18:53:52
626,Krasnogvardeyets,52.6804,52.3635,63.63,54,0,5.35,RU,2022-08-20 18:53:52
627,Avera,33.194,-82.5271,88.56,50,90,6.87,US,2022-08-20 18:53:53
628,Kolokani,13.5728,-8.0339,76.71,78,100,10.31,ML,2022-08-20 18:53:53
629,Astoria,46.1879,-123.8313,67.86,84,100,9.22,US,2022-08-20 18:51:40
630,Katherine,-14.4667,132.2667,57.52,47,4,6.91,AU,2022-08-20 18:53:53
631,Pitimbu,-7.4706,-34.8086,81.19,68,44,16.53,BR,2022-08-20 18:53:54
632,Palauig,15.435,119.9045,79.99,81,100,3.71,PH,2022-08-20 18:53:54
633,Tilichiki,60.4667,166.1,50.07,91,100,2.66,RU,2022-08-20 18:53:54
634,Rock Sound,24.9,-76.2,84.42,74,14,14.12,BS,2022-08-20 18:53:55
635,Aonla,28.2833,79.15,79.12,73,18,6.29,IN,2022-08-20 18:53:55
636,Morristown,36.214,-83.2949,85.33,64,75,6.91,US,2022-08-20 18:49:30
637,Trelew,-43.249,-65.3051,51.85,58,33,16.04,AR,2022-08-20 18:53:25
638,Alvaraes,-3.2208,-64.8042,76.87,44,79,3.4,BR,2022-08-20 18:53:56
639,Santa Rosa,14.3122,121.1114,80.58,84,99,3.87,PH,2022-08-20 18:54:56
640,Nanortalik,60.1432,-45.2371,40.44,95,100,5.46,GL,2022-08-20 18:54:57
641,Catio,11.2833,-15.25,77.74,83,53,7.05,GW,2022-08-20 18:54:57
642,Mount Gambier,-37.8333,140.7667,37.0,88,5,5.23,AU,2022-08-20 18:53:51
643,Castelo Do Piaui,-5.3222,-41.5525,96.75,16,100,6.67,BR,2022-08-20 18:53:08
644,Calabar,4.9517,8.322,74.55,91,83,3.85,NG,2022-08-20 18:55:01
645,Russas,-4.9403,-37.9758,93.45,21,100,8.05,BR,2022-08-20 18:55:02
646,Allapalli,19.4167,80.0667,75.27,96,100,5.68,IN,2022-08-20 18:55:02
647,Gizo,-8.103,156.8419,81.57,75,97,10.87,SB,2022-08-20 18:55:03
648,Jumla,29.2747,82.1838,62.35,88,100,2.3,NP,2022-08-20 18:55:03
649,Fallon,39.4735,-118.7774,91.45,20,0,4.61,US,2022-08-20 18:51:08
650,Mumford,5.2618,-0.759,73.4,91,21,8.81,GH,2022-08-20 18:55:04
651,Constantine,36.365,6.6147,78.21,47,0,8.05,DZ,2022-08-20 18:50:10
652,Tazovskiy,67.4667,78.7,42.19,86,40,10.51,RU,2022-08-20 18:55:04
653,Iranshahr,27.2025,60.6848,100.74,9,0,9.22,IR,2022-08-20 18:55:04
654,Bela,25.9333,81.9833,81.16,83,90,16.51,IN,2022-08-20 18:55:05
655,Fare,-16.7,-151.0167,77.97,74,70,16.2,PF,2022-08-20 18:55:05
656,Los Llanos De Aridane,28.6585,-17.9182,75.13,84,20,16.11,ES,2022-08-20 18:52:05
657,Carolina,18.3808,-65.9574,88.75,77,40,20.71,PR,2022-08-20 18:55:06
658,General Roca,-39.0333,-67.5833,68.56,29,16,8.39,AR,2022-08-20 18:55:06
659,Kampong Thum,12.7111,104.8887,74.64,96,100,5.1,KH,2022-08-20 18:55:06
660,Barugo,11.3242,124.7383,76.78,87,100,3.02,PH,2022-08-20 18:55:07
661,Sao Borja,-28.6606,-56.0044,66.94,46,0,5.46,BR,2022-08-20 18:55:07
662,Mudgee,-32.5943,149.5871,39.61,93,40,6.91,AU,2022-08-20 18:55:10
663,Eydhafushi,5.1033,73.0708,81.07,77,100,9.98,MV,2022-08-20 18:55:11
664,Seoul,37.5683,126.9778,76.6,97,20,1.14,KR,2022-08-20 18:55:11
665,Kisanga,-7.4362,37.7034,74.84,62,0,8.37,TZ,2022-08-20 18:55:11
666,Jawhar,2.7809,45.5005,75.15,85,64,15.35,SO,2022-08-20 18:55:12
667,Sinop,41.7711,34.8709,65.3,92,3,2.33,TR,2022-08-20 18:55:12
668,Gravdal,68.1214,13.5031,56.73,95,100,5.37,NO,2022-08-20 18:55:13
669,Nautla,20.2167,-96.7833,89.19,59,100,13.71,MX,2022-08-20 18:55:13
670,Vieques,18.425,-65.8329,88.9,79,40,20.71,PR,2022-08-20 18:55:13
671,Portland,45.5234,-122.6762,72.9,74,100,4.61,US,2022-08-20 18:53:27
672,Dhoraji,21.7333,70.45,78.57,85,92,10.58,IN,2022-08-20 18:55:14
673,Izumo,35.3667,132.7667,78.75,95,100,5.91,JP,2022-08-20 18:55:14
674,Srandakan,-7.9386,110.2506,76.21,76,100,10.27,ID,2022-08-20 18:55:14
675,Gallup,35.5281,-108.7426,68.76,72,97,1.99,US,2022-08-20 18:55:15
676,Sigli,5.3848,95.9609,77.65,81,97,5.82,ID,2022-08-20 18:55:15
677,Sobolevo,54.4299,31.8996,59.7,63,100,9.42,RU,2022-08-20 18:55:16
678,Verkhoyansk,67.5447,133.385,51.96,97,100,2.95,RU,2022-08-20 18:55:16
679,Bukachacha,52.9833,116.9167,43.25,84,14,3.04,RU,2022-08-20 18:55:17
680,Nelson Bay,-32.7167,152.15,55.0,97,100,7.0,AU,2022-08-20 18:55:17
681,Nyirtelek,48.0167,21.6333,70.52,84,68,8.03,HU,2022-08-20 18:55:17
682,Kenai,60.5544,-151.2583,56.14,93,75,4.61,US,2022-08-20 18:55:18
683,San Blas,21.5167,-105.2667,87.73,61,68,6.71,MX,2022-08-20 18:55:18
684,Shiggaon,15.0,75.2333,69.33,93,100,9.37,IN,2022-08-20 18:56:18
685,Zavet,43.7667,26.6667,74.59,61,0,11.45,BG,2022-08-20 18:56:19
686,Canavieiras,-15.675,-38.9472,78.76,60,51,11.52,BR,2022-08-20 18:52:09
687,Pacific Grove,36.6177,-121.9166,71.2,86,40,11.01,US,2022-08-20 18:56:19
688,Asfi,32.2994,-9.2372,78.93,57,82,14.34,MA,2022-08-20 18:56:20
689,Yakima,46.4665,-120.6678,92.17,41,0,1.99,US,2022-08-20 18:52:24
690,Zlocieniec,53.5329,16.0113,61.9,94,47,7.45,PL,2022-08-20 18:56:20
691,Ngunguru,-35.6167,174.5,53.87,85,7,7.38,NZ,2022-08-20 18:56:20
692,Balkanabat,39.5108,54.3671,83.41,15,0,13.78,TM,2022-08-20 18:52:15
693,Beloha,-25.1667,45.05,69.55,84,2,9.4,MG,2022-08-20 18:56:21
694,Grand Gaube,-20.0064,57.6608,72.0,71,20,8.01,MU,2022-08-20 18:55:08
695,Diffa,13.3154,12.6113,84.74,56,93,8.19,NE,2022-08-20 18:56:22
696,Camacha,33.0833,-16.3333,71.02,78,20,12.66,PT,2022-08-20 18:56:22
697,Chiredzi,-21.05,31.6667,64.65,28,4,4.52,ZW,2022-08-20 18:56:22
698,Lesosibirsk,58.2358,92.4828,50.27,89,100,5.17,RU,2022-08-20 18:56:23
699,Baglan,36.1307,68.7083,77.92,15,18,1.12,AF,2022-08-20 18:56:23
700,Kongwa,-6.2,36.4167,67.71,52,2,5.93,TZ,2022-08-20 18:56:23
701,Korla,41.7597,86.1469,73.74,34,4,17.07,CN,2022-08-20 18:56:24
702,Trincomalee,8.5711,81.2335,80.47,76,72,19.13,LK,2022-08-20 18:56:24
703,Tshikapa,-6.4167,20.8,84.24,43,93,4.38,CD,2022-08-20 18:55:10
704,San Lawrenz,36.0553,14.204,79.86,75,0,5.01,MT,2022-08-20 18:56:25
705,Salinopolis,-0.6136,-47.3561,82.04,77,83,11.43,BR,2022-08-20 18:51:57
706,San Vicente,-26.6167,-54.1333,63.1,40,0,1.32,AR,2022-08-20 18:56:25
707,Inhambane,-23.865,35.3833,64.38,88,20,5.01,MZ,2022-08-20 18:56:26
