City_ID,City,Country,Lat,Lng,Max Temp,Humidity,Cloudiness,Wind Speed,Current Description
0,Dakar,SN,14.6937,-17.4441,86.13,74,75,13.8,broken clouds
1,Tuktoyaktuk,CA,69.4541,-133.0374,42.8,81,100,14.97,overcast clouds
2,Dikson,RU,73.5069,80.5464,42.55,95,99,9.86,overcast clouds
3,Avera,US,33.194,-82.5271,82.45,64,100,4.21,overcast clouds
4,Mar Del Plata,AR,-38.0023,-57.5575,54.09,84,100,13.8,overcast clouds
5,Puerto Ayora,EC,-0.7393,-90.3518,75.16,91,95,5.01,overcast clouds
6,Ponta Do Sol,PT,32.6667,-17.1,88.43,64,100,3.98,overcast clouds
7,Margate,GB,51.3813,1.3862,73.87,68,94,4.0,overcast clouds
8,Kavieng,PG,-2.5744,150.7967,80.65,77,41,10.18,light rain
9,Mataura,NZ,-46.1927,168.8643,48.47,99,100,2.84,overcast clouds
10,Halifax,CA,44.6453,-63.5724,85.89,60,1,11.5,clear sky
11,Eldorado,BR,-23.7869,-54.2836,71.56,58,2,7.27,clear sky
12,Harper,LR,4.375,-7.7169,77.88,75,41,9.24,scattered clouds
13,Castro,BR,-24.7911,-50.0119,61.79,67,59,4.79,broken clouds
14,Karratha,AU,-20.7377,116.8463,69.44,39,0,8.01,clear sky
15,Sao Joao Da Barra,BR,-21.6403,-41.0511,73.49,60,93,13.15,overcast clouds
16,Noumea,NC,-22.2763,166.4572,72.0,99,100,12.19,overcast clouds
17,Hermanus,ZA,-34.4187,19.2345,55.8,83,0,12.68,clear sky
18,Vavatenina,MG,-17.4667,49.2,63.12,99,8,1.59,clear sky
19,Mgandu,TZ,-5.95,34.1333,73.08,39,72,11.36,broken clouds
20,Karaton,ID,-6.3424,106.1045,72.7,95,100,1.48,overcast clouds
21,Bani Walid,LY,31.7566,13.9942,81.79,39,0,15.23,clear sky
22,Aljezur,PT,37.3191,-8.8033,72.21,68,3,15.64,clear sky
23,Busselton,AU,-33.65,115.3333,49.28,72,19,10.6,few clouds
24,Half Moon Bay,US,37.4636,-122.4286,77.05,74,100,17.27,overcast clouds
25,Dwarka,IN,22.2394,68.9678,81.75,81,100,17.65,overcast clouds
26,Progreso,MX,21.2833,-89.6667,87.91,65,17,13.94,few clouds
27,Smithers,CA,54.7804,-127.1743,62.92,59,0,2.3,clear sky
28,Lagdo,CM,9.05,13.7333,71.44,96,100,1.43,light rain
29,Pilani,IN,28.3684,75.6041,87.12,60,86,3.56,overcast clouds
30,Port Alfred,ZA,-33.5906,26.891,57.18,66,0,0.98,clear sky
31,Bluff,NZ,-46.6,168.3333,48.79,82,98,4.47,overcast clouds
32,Makinsk,KZ,52.6292,70.4169,53.13,94,100,9.17,overcast clouds
33,Punta Arenas,CL,-53.15,-70.9167,50.11,53,75,13.8,broken clouds
34,Havoysund,NO,70.9963,24.6622,64.63,88,100,10.96,overcast clouds
35,Cidreira,BR,-30.1811,-50.2056,61.43,64,2,7.94,clear sky
36,Vila Velha,BR,-20.3297,-40.2925,75.15,68,0,20.71,clear sky
37,Eureka,US,40.8021,-124.1637,64.26,87,11,3.0,few clouds
38,Sisimiut,GL,66.9395,-53.6735,43.56,73,94,10.04,overcast clouds
39,Atuona,PF,-9.8,-139.0333,76.3,69,81,17.02,broken clouds
40,Jamestown,US,42.097,-79.2353,78.39,80,75,8.05,broken clouds
41,Korla,CN,41.7597,86.1469,73.36,25,91,19.62,overcast clouds
42,Maningrida,AU,-12.0667,134.2667,62.01,92,2,8.57,clear sky
43,Constantine,DZ,36.365,6.6147,87.21,28,0,11.5,clear sky
44,Muroto,JP,33.2833,134.15,81.37,86,1,9.98,clear sky
45,Esperance,AU,-33.8667,121.9,53.19,70,97,21.72,overcast clouds
46,Laguna,US,38.421,-121.4238,92.01,47,0,11.5,clear sky
47,Faanui,PF,-16.4833,-151.75,78.26,71,72,19.51,broken clouds
48,Bredasdorp,ZA,-34.5322,20.0403,49.06,92,0,7.05,clear sky
49,Huejuquilla El Alto,MX,22.6,-103.8667,74.16,56,71,2.71,broken clouds
50,Victoria,HK,22.2855,114.1577,85.32,84,97,4.0,overcast clouds
51,Barrow,US,71.2906,-156.7887,34.03,69,100,14.43,overcast clouds
52,Ushuaia,AR,-54.8,-68.3,46.06,71,75,9.22,broken clouds
53,Hilo,US,19.7297,-155.09,79.61,78,40,4.61,scattered clouds
54,Acapulco,MX,16.8634,-99.8901,85.82,58,100,3.44,overcast clouds
55,Arraial Do Cabo,BR,-22.9661,-42.0278,71.56,60,20,11.5,few clouds
56,Butaritari,KI,3.0707,172.7902,81.23,76,72,13.15,broken clouds
57,Ribeira Grande,PT,38.5167,-28.7,73.8,78,75,1.14,broken clouds
58,Albany,US,42.6001,-73.9662,87.64,50,100,4.0,overcast clouds
59,Norman Wells,CA,65.282,-126.8329,57.24,72,75,5.75,broken clouds
60,Antofagasta,CL,-23.65,-70.4,58.28,65,42,6.51,scattered clouds
61,Cape Town,ZA,-33.9258,18.4232,57.09,70,0,8.05,clear sky
62,Upernavik,GL,72.7868,-56.1549,41.05,82,48,11.5,scattered clouds
63,Mundo Nuevo,MX,18.7,-95.5,85.19,71,11,5.32,few clouds
64,Saint-Philippe,RE,-21.3585,55.7679,69.39,67,19,5.19,few clouds
65,Kaitangata,NZ,-46.2817,169.8464,46.65,95,100,3.8,overcast clouds
66,Hobyo,SO,5.3505,48.5268,76.8,83,86,27.2,overcast clouds
67,Rikitea,PF,-23.1203,-134.9692,71.51,74,97,16.2,overcast clouds
68,Tasiilaq,GL,65.6145,-37.6368,44.76,95,100,2.33,overcast clouds
69,Cabo San Lucas,MX,22.8909,-109.9124,92.61,63,20,9.22,few clouds
70,New Norfolk,AU,-42.7826,147.0587,55.92,76,100,1.01,overcast clouds
71,East London,ZA,-33.0153,27.9116,52.74,82,0,3.44,clear sky
72,Pizarro,CO,4.9533,-77.366,80.78,78,91,8.05,light rain
73,Nizhnyaya Omka,RU,55.4338,74.9426,47.32,90,47,7.11,scattered clouds
74,Vaini,TO,-21.2,-175.2,69.96,94,20,8.05,few clouds
75,Bethel,US,41.3712,-73.414,86.54,59,20,8.05,few clouds
76,Auriflama,BR,-20.6856,-50.5547,77.18,40,79,7.25,broken clouds
77,Hithadhoo,MV,-0.6,73.0833,82.63,76,73,11.45,broken clouds
78,Port Victoria,KE,0.0939,33.9756,72.7,69,56,2.21,broken clouds
79,Benguela,AO,-12.5763,13.4055,70.2,83,9,4.0,clear sky
80,Manhush,UA,47.0558,37.3107,82.08,40,26,20.56,scattered clouds
81,Tiksi,RU,71.6872,128.8694,40.6,91,96,12.21,overcast clouds
82,Pacific Grove,US,36.6177,-121.9166,67.39,89,100,5.01,overcast clouds
83,Qaanaaq,GL,77.484,-69.3632,37.47,59,100,4.03,overcast clouds
84,Bambous Virieux,MU,-20.3428,57.7575,68.25,88,20,3.44,few clouds
85,Georgetown,MY,5.4112,100.3354,79.95,88,20,3.44,few clouds
86,Namatanai,PG,-3.6667,152.4333,77.41,83,65,4.92,light rain
87,Lipin Bor,RU,60.2622,37.9763,62.49,64,81,8.72,broken clouds
88,Loding,NO,67.3,14.75,66.54,90,75,5.75,light intensity shower rain
89,Avarua,CK,-21.2078,-159.775,73.45,83,100,10.36,overcast clouds
90,Neiafu,TO,-18.65,-173.9833,61.48,94,20,0.0,few clouds
91,Longyearbyen,SJ,78.2186,15.6401,42.64,81,75,4.61,broken clouds
92,Iqaluit,CA,63.7506,-68.5145,47.93,81,100,16.11,overcast clouds
93,Denia,ES,38.8408,0.1057,93.63,64,61,5.99,broken clouds
94,Hobart,AU,-42.8794,147.3294,56.26,65,100,18.41,overcast clouds
95,Yellowknife,CA,62.456,-114.3525,59.56,67,75,0.0,broken clouds
96,Port Augusta,AU,-32.5,137.7667,51.84,67,5,7.31,clear sky
97,Saint George,US,37.1041,-113.5841,86.43,43,0,3.0,clear sky
98,Mapiri,BO,-15.25,-68.1667,84.02,29,7,3.0,clear sky
99,Thompson,CA,55.7435,-97.8558,69.96,68,75,16.11,broken clouds
100,Fomboni,KM,-12.28,43.7425,75.92,78,6,10.29,clear sky
101,Hambantota,LK,6.1241,81.1185,78.8,82,62,17.9,broken clouds
102,Chokurdakh,RU,70.6333,147.9167,53.35,86,90,4.52,overcast clouds
103,North Versailles,US,40.3798,-79.8095,78.94,77,87,5.99,overcast clouds
104,Crossville,US,35.949,-85.0269,77.92,86,40,3.0,scattered clouds
105,Maniitsoq,GL,65.4167,-52.9,41.7,76,94,2.84,overcast clouds
106,Broken Hill,AU,-31.95,141.4333,52.3,57,62,10.2,broken clouds
107,Japaratuba,BR,-10.5933,-36.9403,78.08,73,55,13.13,broken clouds
108,Bac Lieu,VN,9.285,105.7244,79.2,86,98,8.32,overcast clouds
109,Zhengjiatun,CN,43.5064,123.5064,65.68,95,100,18.95,light rain
110,Grindavik,IS,63.8424,-22.4338,55.35,66,0,14.97,clear sky
111,Honningsvag,NO,70.9821,25.9704,64.15,82,75,12.66,broken clouds
112,Athni,IN,16.7333,75.0667,72.01,87,100,13.42,overcast clouds
113,Pampas,PE,-12.4,-74.9,61.84,37,33,7.76,scattered clouds
114,Saskylakh,RU,71.9167,114.0833,35.29,91,100,5.75,overcast clouds
115,San Jose,US,37.3394,-121.895,80.69,60,0,9.22,clear sky
116,Barras,BR,-4.2444,-42.2944,97.9,17,69,6.78,broken clouds
117,Gazanjyk,TM,39.2446,55.5154,79.0,12,0,16.42,clear sky
118,Khatanga,RU,71.9667,102.5,47.41,61,100,7.09,overcast clouds
119,Lebu,CL,-37.6167,-73.65,55.18,77,1,14.7,clear sky
120,Luderitz,NA,-26.6481,15.1594,60.62,61,2,10.54,clear sky
121,Kavaratti,IN,10.5669,72.642,81.32,79,94,14.05,overcast clouds
122,Sitka,US,57.0531,-135.33,55.29,100,100,0.0,mist
123,Bucine,IT,43.4764,11.6148,79.99,85,89,3.29,overcast clouds
124,Rosario,AR,-32.9468,-60.6393,67.82,30,0,4.61,clear sky
125,Alofi,NU,-19.0595,-169.9187,60.69,94,4,1.14,clear sky
126,Dingzhou,CN,38.5131,114.9956,78.91,99,100,6.85,light rain
127,Port Elizabeth,ZA,-33.918,25.5701,55.31,84,0,10.36,clear sky
128,Anloga,GH,5.7947,0.8973,75.87,83,17,11.05,few clouds
129,Severinia,BR,-20.8094,-48.8028,82.8,30,18,4.5,few clouds
130,Canandaigua,US,42.8742,-77.288,85.19,71,97,1.99,overcast clouds
131,Hortobagy,HU,47.5828,21.1511,75.4,87,100,4.83,overcast clouds
132,Kenai,US,60.5544,-151.2583,57.09,93,100,10.36,overcast clouds
133,Deputatskiy,RU,69.3,139.9,43.74,89,100,0.56,overcast clouds
134,Udachnyy,RU,66.4167,112.4,37.45,86,99,4.45,overcast clouds
135,Clyde River,CA,70.4692,-68.5914,46.63,81,100,8.05,overcast clouds
136,Nikolskoye,RU,59.7035,30.7861,68.79,67,52,5.66,broken clouds
137,Yulara,AU,-25.2406,130.9889,52.93,41,1,4.56,clear sky
138,Lompoc,US,34.6391,-120.4579,76.69,93,100,6.91,overcast clouds
139,La Tuque,CA,47.4334,-72.7824,75.45,64,100,3.44,overcast clouds
140,Provideniya,RU,64.3833,-173.3,47.73,70,1,2.71,clear sky
141,Khandyga,RU,62.6667,135.6,48.69,95,100,4.63,overcast clouds
142,Mount Pleasant,US,32.7941,-79.8626,89.06,74,0,8.05,clear sky
143,Kalamare,BW,-22.9337,26.5703,56.62,53,0,14.45,clear sky
144,Nuevo Progreso,MX,23.1667,-97.95,90.46,75,95,8.86,overcast clouds
145,Tobetsu,JP,43.2169,141.5169,60.49,75,0,3.78,clear sky
146,Los Llanos De Aridane,ES,28.6585,-17.9182,79.12,73,0,14.97,clear sky
147,Sangar,RU,63.9242,127.4739,43.09,92,65,12.97,broken clouds
148,Cherskiy,RU,68.75,161.3,56.16,69,96,10.49,overcast clouds
149,Manzil Salim,TN,35.8567,8.4765,80.76,27,0,13.47,clear sky
150,Nuuk,GL,64.1835,-51.7216,45.88,81,94,4.0,overcast clouds
151,Geraldton,AU,-28.7667,114.6,50.41,93,0,11.5,clear sky
152,Colac,AU,-38.3333,143.5833,48.83,67,100,14.34,overcast clouds
153,Kodiak,US,57.79,-152.4072,53.11,100,100,14.97,mist
154,Saldanha,ZA,-33.0117,17.9442,53.65,79,0,11.36,clear sky
155,Narsaq,GL,60.9167,-46.05,53.82,46,0,0.43,clear sky
156,Tyrma,RU,50.0833,132.1667,47.61,97,38,1.63,scattered clouds
157,Camacha,PT,33.0833,-16.3333,72.82,73,20,6.91,few clouds
158,Moyo,UG,3.6609,31.7247,69.89,78,100,3.36,overcast clouds
159,Kapaa,US,22.0752,-159.319,76.1,87,40,11.5,scattered clouds
160,Nidzica,PL,53.3605,20.4275,74.79,88,100,10.92,overcast clouds
161,Ancud,CL,-41.8697,-73.8203,60.22,68,50,4.34,scattered clouds
162,Igrim,RU,63.1906,64.4162,65.21,71,40,4.74,scattered clouds
163,Salamanca,ES,40.8333,-6.0,89.38,20,30,12.68,scattered clouds
164,Chapais,CA,49.7834,-74.8492,64.18,91,100,7.2,overcast clouds
165,Iranshahr,IR,27.2025,60.6848,98.94,8,0,13.8,clear sky
166,Havre-Saint-Pierre,CA,50.2334,-63.5986,73.76,73,0,5.75,clear sky
167,Lesosibirsk,RU,58.2358,92.4828,48.33,99,100,5.14,overcast clouds
168,Codrington,AU,-38.2667,141.9667,51.28,86,100,16.42,overcast clouds
169,Tuatapere,NZ,-46.1333,167.6833,44.33,89,100,2.84,overcast clouds
170,Nioro,GM,13.35,-15.75,79.41,84,100,6.31,moderate rain
171,Cortes,ES,41.9395,-1.4396,89.65,37,94,23.17,overcast clouds
172,Hosbach,DE,50.0,9.2,80.35,39,32,1.79,scattered clouds
173,Broome,US,42.2506,-75.833,79.68,64,75,13.8,broken clouds
174,Qiyang,CN,26.5911,111.8474,81.82,69,65,6.53,broken clouds
175,Panama City,PA,8.9936,-79.5197,77.29,93,40,6.91,scattered clouds
176,Shenjiamen,CN,29.9576,122.298,79.77,95,63,7.7,broken clouds
177,Aykhal,RU,66.0,111.5,38.86,97,100,5.35,overcast clouds
178,Kefalos,GR,36.7453,26.9589,77.22,83,0,10.36,clear sky
179,Bengkulu,ID,-3.8004,102.2655,74.46,85,100,4.5,light rain
180,Thames,NZ,-37.1333,175.5333,51.49,93,79,3.24,broken clouds
181,Okha,RU,53.5739,142.9478,53.65,92,100,17.36,overcast clouds
182,Nokaneng,BW,-19.6667,22.2667,62.94,10,0,8.1,clear sky
183,Puerto Escondido,MX,15.85,-97.0667,88.43,61,88,8.55,overcast clouds
184,Arlit,NE,18.7369,7.3853,99.81,20,0,6.04,clear sky
185,Sochi,RU,43.6,39.7303,77.09,72,49,4.83,scattered clouds
186,Mount Isa,AU,-20.7333,139.5,49.77,43,0,0.0,clear sky
187,Quime,BO,-16.9833,-67.2167,59.81,34,1,9.44,clear sky
188,Haverfordwest,GB,51.8017,-4.9691,68.05,74,61,4.09,broken clouds
189,Paamiut,GL,61.994,-49.6678,41.67,88,23,17.09,few clouds
190,Zonguldak,TR,41.25,31.8333,66.11,93,1,1.03,clear sky
191,San Policarpo,PH,12.1791,125.5072,77.22,90,100,7.47,light rain
192,Vigrestad,NO,58.5667,5.7,60.48,76,12,14.81,few clouds
193,Loiza,PR,18.4313,-65.8802,89.85,82,40,16.11,scattered clouds
194,Carutapera,BR,-1.195,-46.02,90.19,42,71,8.66,broken clouds
195,Sucua,EC,-2.4667,-78.1667,66.94,72,75,5.75,broken clouds
196,Arman,RU,59.7,150.1667,57.02,92,100,8.61,light rain
197,Chuy,UY,-33.6971,-53.4616,58.24,56,100,2.1,overcast clouds
198,Nizhniy Odes,RU,63.6445,54.856,64.02,52,91,3.58,overcast clouds
199,Awjilah,LY,29.1081,21.2869,88.07,41,0,17.63,clear sky
200,Fereydunshahr,IR,32.941,50.121,67.03,28,98,1.21,overcast clouds
201,Kifri,IQ,34.6959,44.9661,98.78,10,0,10.0,clear sky
202,Lang Son,VN,21.8333,106.7333,74.23,97,32,2.15,scattered clouds
203,Alice Springs,AU,-23.7,133.8833,42.35,61,0,4.61,clear sky
204,Nemuro,JP,43.3236,145.575,63.25,95,0,6.4,clear sky
205,Marienburg,PL,54.0359,19.0266,66.11,87,100,10.36,light rain
206,Tiznit,MA,29.5833,-9.5,98.29,17,37,6.6,scattered clouds
207,Ciudad Bolivar,VE,8.1222,-63.5497,75.52,89,100,10.58,overcast clouds
208,Portland,US,45.5234,-122.6762,79.61,67,40,3.44,scattered clouds
209,Lagoa,PT,39.05,-27.9833,72.86,78,51,8.68,broken clouds
210,Sorland,NO,67.667,12.6934,55.26,98,100,5.17,overcast clouds
211,Riyadh,SA,24.6877,46.7219,104.14,10,47,11.86,scattered clouds
212,Mahebourg,MU,-20.4081,57.7,68.29,88,20,3.44,few clouds
213,Axim,GH,4.8699,-2.2405,76.87,76,25,7.29,scattered clouds
214,Yamada,JP,39.4667,141.95,67.53,92,8,3.78,clear sky
215,Shache,CN,38.4167,77.2406,79.84,33,95,9.37,overcast clouds
216,Mehamn,NO,71.0357,27.8492,67.95,77,40,11.5,scattered clouds
217,Turayf,SA,31.6725,38.6637,89.85,25,0,11.5,clear sky
218,Umea,SE,63.8284,20.2597,58.93,94,75,9.22,light rain
219,Zhigansk,RU,66.7697,123.3711,39.63,92,100,6.17,overcast clouds
220,San Lazaro,BZ,18.0387,-88.6622,87.26,70,26,6.08,scattered clouds
221,Abu Zabad,SD,12.35,29.25,79.05,71,92,7.29,overcast clouds
222,Rodrigues Alves,BR,-7.738,-72.6509,82.6,23,3,4.23,clear sky
223,Carnarvon,AU,-24.8667,113.6333,65.73,74,0,16.44,clear sky
224,Ust-Tsilma,RU,65.441,52.1498,62.82,61,6,3.74,clear sky
225,Ishigaki,JP,24.3448,124.1572,80.73,89,20,2.3,few clouds
226,Marsh Harbour,BS,26.5412,-77.0636,84.94,70,2,12.62,clear sky
227,Bukoba,TZ,-1.3317,31.8122,73.24,67,40,3.85,scattered clouds
228,Diamantino,BR,-14.4086,-56.4461,90.43,27,5,5.91,clear sky
229,Middle Island,US,40.8843,-72.9373,83.03,72,0,11.5,clear sky
230,Flinders,AU,-34.5833,150.8552,49.05,84,18,1.99,few clouds
231,Fairbanks,US,64.8378,-147.7164,61.92,73,40,5.75,scattered clouds
232,Dicabisagan,PH,17.0818,122.4157,78.08,88,100,5.28,light rain
233,Vardo,NO,70.3705,31.1107,69.78,60,0,16.11,clear sky
234,Chancay,PE,-11.5714,-77.2672,66.18,69,17,9.22,few clouds
235,Varhaug,NO,58.6147,5.6457,60.35,76,16,14.67,few clouds
236,Liverpool,GB,53.4106,-2.9779,70.38,61,40,10.36,scattered clouds
237,Nizwa,OM,22.9333,57.5333,92.52,30,52,5.5,broken clouds
238,Tripoli,LY,32.8752,13.1875,81.41,58,0,9.04,clear sky
239,Krasnoselkup,RU,65.7,82.4667,41.94,79,41,10.45,scattered clouds
240,Pontianak,ID,-0.0333,109.3333,76.98,94,75,4.61,broken clouds
241,Upata,VE,8.0086,-62.3989,78.19,90,100,4.85,overcast clouds
242,Tarakan,ID,3.3,117.6333,78.3,89,20,2.3,few clouds
243,Mogadishu,SO,2.0371,45.3438,76.39,86,18,16.89,few clouds
244,Itarema,BR,-2.9248,-39.9167,86.32,48,65,16.51,broken clouds
245,Abu Dhabi,AE,24.4667,54.3667,96.91,61,0,6.91,clear sky
246,Hofn,IS,64.2539,-15.2082,49.69,58,27,6.64,scattered clouds
247,Mayo,US,38.8876,-76.5119,82.35,79,0,9.22,clear sky
248,Komsomolskiy,UZ,40.4272,71.7189,70.52,28,11,4.61,few clouds
249,Isangel,VU,-19.55,169.2667,72.07,83,14,9.62,few clouds
250,Veraval,IN,20.9,70.3667,80.94,82,100,16.24,overcast clouds
251,Ayan,RU,56.45,138.1667,54.77,87,100,8.48,light rain
252,Olafsvik,IS,64.8945,-23.7142,47.95,56,99,7.94,overcast clouds
253,Rio Grande,BR,-32.035,-52.0986,66.31,74,16,5.91,few clouds
254,Pevek,RU,69.7008,170.3133,46.09,63,0,13.91,clear sky
255,Port Blair,IN,11.6667,92.75,82.44,83,100,8.05,mist
256,Severo-Kurilsk,RU,50.6789,156.125,55.36,99,91,5.23,overcast clouds
257,Pisco,PE,-13.7,-76.2167,60.03,88,100,6.91,mist
258,Lorengau,PG,-2.0226,147.2712,79.45,81,95,8.08,overcast clouds
259,Madras,IN,13.0878,80.2785,78.78,94,100,5.75,overcast clouds
260,Mattawa,US,46.7379,-119.9028,78.8,34,18,1.19,few clouds
261,Vilyuysk,RU,63.7553,121.6247,44.76,90,100,4.81,overcast clouds
262,Gezing,AT,47.9178,13.1299,71.85,56,75,8.05,broken clouds
263,Coos Bay,US,43.3665,-124.2179,67.23,82,0,6.91,clear sky
264,Lavrentiya,RU,65.5833,-171.0,39.92,79,4,8.34,clear sky
265,Kidal,ML,18.4411,1.4078,89.33,39,61,12.55,broken clouds
266,Svetlogorsk,BY,52.6333,29.7333,72.55,57,52,10.98,broken clouds
267,Hasaki,JP,35.7333,140.8333,75.6,93,54,11.63,broken clouds
268,Gimli,CA,50.6336,-96.9907,80.13,46,54,8.21,broken clouds
269,Kralendijk,BQ,12.15,-68.2667,91.38,58,20,12.66,few clouds
270,Kahului,US,20.8947,-156.47,78.84,70,40,13.8,scattered clouds
271,Russell,US,32.3502,-85.1999,85.01,70,40,6.91,scattered clouds
272,Auki,SB,-8.7676,160.7034,75.58,88,71,4.74,broken clouds
273,Talnakh,RU,69.4865,88.3972,43.21,76,17,8.08,few clouds
274,Caravelas,BR,-17.7125,-39.2481,71.06,74,98,15.37,overcast clouds
275,Bongandanga,CD,1.5,21.05,73.02,87,62,2.8,light rain
276,Guerrero Negro,MX,27.9769,-114.0611,76.39,61,28,13.11,scattered clouds
277,Masuguru,TZ,-11.3667,38.4167,81.79,43,69,9.31,broken clouds
278,Cayenne,GF,4.9333,-52.3333,84.24,65,75,8.05,broken clouds
279,Niteroi,BR,-22.8833,-43.1036,76.62,65,75,10.36,broken clouds
280,Bloomington,US,44.8408,-93.2983,81.32,58,40,5.75,scattered clouds
281,Jasper,US,37.2001,-94.3502,84.94,51,40,9.22,scattered clouds
282,Asau,RO,46.4333,26.4,72.52,67,78,3.98,broken clouds
283,Bijapur,IN,16.8333,75.7,72.41,85,100,16.42,overcast clouds
284,Mortka,RU,59.3322,66.0214,63.63,75,94,7.23,overcast clouds
285,Qena,EG,26.1615,32.7183,96.66,15,0,7.83,clear sky
286,Klaksvik,FO,62.2266,-6.589,49.12,87,99,26.06,overcast clouds
287,Beloha,MG,-25.1667,45.05,61.34,58,14,7.56,few clouds
288,Peniche,PT,39.3558,-9.3811,75.29,85,3,17.85,clear sky
289,Matiri,TZ,-10.75,34.9,65.23,54,63,5.41,broken clouds
290,Kilindoni,TZ,-7.9139,39.6668,75.42,74,29,16.71,scattered clouds
291,Gavle,SE,60.6745,17.1417,67.91,62,99,6.64,overcast clouds
292,Banda Aceh,ID,5.5577,95.3222,80.76,73,100,9.04,light rain
293,Chumikan,RU,54.7183,135.315,56.44,73,100,16.26,overcast clouds
294,Sechura,PE,-5.5569,-80.8222,76.6,56,94,12.44,overcast clouds
295,Marzuq,YE,14.4,46.4667,81.99,59,68,9.6,broken clouds
296,Jaumave,MX,23.4167,-99.3833,92.19,39,66,5.59,broken clouds
297,Whyalla,AU,-33.0333,137.5833,54.41,71,11,10.94,few clouds
298,Elizabeth City,US,36.2946,-76.2511,87.06,75,100,3.44,overcast clouds
299,Verkhnevilyuysk,RU,63.4453,120.3167,41.68,98,27,3.74,scattered clouds
300,Bay Roberts,CA,47.5999,-53.2648,64.06,79,32,1.99,scattered clouds
301,Kangalassy,RU,62.3464,129.9628,48.13,84,29,13.18,scattered clouds
302,Licata,IT,37.1071,13.9461,82.15,51,2,16.64,clear sky
303,Akyab,MM,20.15,92.9,81.01,86,90,6.22,overcast clouds
304,Waipawa,NZ,-41.4122,175.5153,47.91,85,61,8.16,broken clouds
305,Chara,RU,56.9064,118.2631,45.73,90,100,0.89,overcast clouds
306,Mayor Pablo Lagerenza,PY,-19.9309,-60.7718,80.94,17,0,3.44,clear sky
307,Henties Bay,NA,-22.116,14.2845,60.57,58,85,8.21,overcast clouds
308,Airai,TL,-8.9266,125.4092,50.88,73,32,4.07,scattered clouds
309,Deori Khas,IN,23.4,79.0167,73.35,97,100,14.83,very heavy rain
310,Bubaque,GW,11.2833,-15.8333,79.66,77,100,10.98,overcast clouds
311,Mount Gambier,AU,-37.8333,140.7667,51.71,93,100,13.8,overcast clouds
312,Naze,JP,28.3667,129.4833,79.72,87,81,12.97,moderate rain
313,Kyaikkami,MM,16.08,97.5675,77.85,91,100,14.07,moderate rain
314,Nome,US,64.5011,-165.4064,55.11,66,0,11.5,clear sky
315,Iracoubo,GF,5.4802,-53.2011,82.72,73,38,8.23,light rain
316,Abbeville,FR,50.1,1.8333,74.5,79,84,11.43,broken clouds
317,Jacmel,HT,18.2342,-72.5347,93.04,67,27,5.75,scattered clouds
318,Easley,US,34.8298,-82.6015,81.27,80,100,4.61,overcast clouds
319,Bairiki,KI,1.3292,172.9752,80.6,83,75,5.75,broken clouds
320,Pangnirtung,CA,66.1451,-65.7125,51.8,82,100,3.44,overcast clouds
321,Ostrovnoy,RU,68.0531,39.5131,64.08,68,31,22.21,scattered clouds
322,Salym,RU,60.0625,71.4789,50.79,74,96,1.57,overcast clouds
323,Konskie,PL,51.1917,20.4061,75.18,55,100,6.06,overcast clouds
324,Bandarbeyla,SO,9.4942,50.8122,76.53,84,41,31.61,scattered clouds
325,Cavinti,PH,14.2448,121.508,73.22,96,100,3.49,moderate rain
326,Abong Mbang,CM,3.9833,13.1833,69.26,97,96,2.73,overcast clouds
327,Amarante Do Maranhao,BR,-5.5667,-46.7422,96.55,17,82,6.62,broken clouds
328,Yegros,PY,-26.45,-56.4,73.8,48,0,2.17,clear sky
329,Nanortalik,GL,60.1432,-45.2371,42.03,81,35,15.79,scattered clouds
330,Baykit,RU,61.67,96.37,44.13,81,99,7.16,overcast clouds
331,Namwala,ZM,-15.7504,26.4384,74.82,22,2,9.31,clear sky
332,May Pen,JM,17.9645,-77.2451,88.81,50,90,11.12,overcast clouds
333,Inhambane,MZ,-23.865,35.3833,66.18,63,0,7.0,clear sky
334,Itamaraca,BR,-7.7478,-34.8256,80.65,66,49,13.04,scattered clouds
335,Aklavik,CA,68.2191,-135.0107,41.31,93,100,12.55,overcast clouds
336,Jimma,ET,7.6667,36.8333,58.64,95,100,1.3,light rain
337,Meulaboh,ID,4.1363,96.1285,76.53,86,100,2.24,heavy intensity rain
338,Gangakher,IN,18.95,76.75,76.44,82,100,11.05,overcast clouds
339,Zhangjiakou,CN,40.81,114.8794,66.58,91,100,4.36,overcast clouds
340,Ucluelet,CA,48.9329,-125.5528,64.09,88,100,6.08,overcast clouds
341,Linkou,CN,45.3,130.2833,60.12,96,92,1.43,overcast clouds
342,Jaru,BR,-10.4389,-62.4664,95.18,22,11,3.4,few clouds
343,Pochutla,MX,15.7432,-96.4661,92.82,51,55,6.42,broken clouds
344,Leua,SK,48.2156,18.6071,64.56,95,100,8.14,light rain
345,Metro,ID,-5.1131,105.3067,73.65,93,100,3.27,overcast clouds
346,Kungurtug,RU,50.5994,97.5228,35.74,88,63,1.01,broken clouds
347,Tautira,PF,-17.7333,-149.15,77.56,74,50,13.18,scattered clouds
348,Imbituba,BR,-28.24,-48.6703,68.86,81,1,13.0,clear sky
349,Rundu,NA,-17.9333,19.7667,62.56,10,26,6.11,scattered clouds
350,Menongue,AO,-14.6585,17.691,65.26,16,2,5.03,clear sky
351,Mbanza-Ngungu,CD,-5.25,14.8667,79.36,53,86,8.16,light rain
352,Belmonte,BR,-15.8631,-38.8828,75.92,64,84,11.45,broken clouds
353,Aksu,CN,41.1231,80.2644,75.58,38,86,5.66,overcast clouds
354,Yaring,TH,6.8662,101.3689,77.49,80,91,7.85,overcast clouds
355,Muros,ES,42.7762,-9.0603,81.68,86,52,12.5,broken clouds
356,Edgewater,US,28.9889,-80.9023,97.11,66,40,11.5,scattered clouds
357,Saint Anthony,US,45.0205,-93.218,81.14,57,75,5.75,broken clouds
358,Bowen,AU,-20.0167,148.2333,57.96,91,1,9.37,clear sky
359,Qandala,SO,11.472,49.8728,88.95,59,31,2.21,scattered clouds
360,Asosa,ET,10.0667,34.5333,62.19,86,100,3.94,overcast clouds
361,Saravan,AM,39.7196,45.6483,60.42,48,27,8.84,scattered clouds
362,San Andres,CO,12.5847,-81.7006,86.02,74,75,6.91,broken clouds
363,Puerto Leguizamo,CO,-0.1934,-74.7819,73.2,65,96,3.8,overcast clouds
364,Darhan,MN,49.4867,105.9228,46.09,80,14,1.77,few clouds
365,Nezlobnaya,RU,44.1181,43.4028,77.14,43,62,12.62,broken clouds
366,Nichinan,JP,31.6,131.3667,79.0,92,24,3.58,few clouds
367,Pontes E Lacerda,BR,-15.2261,-59.3353,89.71,24,0,6.15,clear sky
368,Necochea,AR,-38.5473,-58.7368,49.12,74,100,10.25,overcast clouds
369,Santa Catalina,PH,9.3337,122.8637,79.16,85,100,2.46,light rain
370,Labrea,BR,-7.2586,-64.7981,93.06,27,28,3.51,scattered clouds
371,Nouadhibou,MR,20.931,-17.0347,80.58,78,64,18.41,broken clouds
372,Gizo,SB,-8.103,156.8419,80.53,77,93,8.16,light rain
373,Juruti,BR,-2.1522,-56.0922,96.17,34,76,1.34,broken clouds
374,Atbasar,KZ,51.8,68.3333,56.16,90,100,11.86,overcast clouds
375,Egvekinot,RU,66.3167,-179.1667,46.22,67,1,1.81,clear sky
376,Erenhot,CN,43.6475,111.9767,60.35,47,47,17.96,scattered clouds
377,Ilulissat,GL,69.2167,-51.1,37.33,84,96,1.41,overcast clouds
378,Tecoanapa,MX,16.5167,-98.75,86.32,62,100,8.7,overcast clouds
379,Bataipora,BR,-22.2953,-53.2711,73.9,57,24,6.17,few clouds
380,Estevan,CA,49.1334,-102.9842,86.34,42,0,4.61,clear sky
381,Vestmanna,FO,62.1564,-7.1664,47.32,87,100,16.11,overcast clouds
382,Oriximina,BR,-1.7656,-55.8661,93.56,40,69,4.47,broken clouds
383,Ponta Delgada,PT,37.7333,-25.6667,74.12,68,40,4.61,scattered clouds
384,Victor Harbor,AU,-35.5667,138.6167,55.0,86,80,16.33,broken clouds
385,Penzance,GB,50.1186,-5.5371,65.77,76,93,6.71,overcast clouds
386,Ilhabela,BR,-23.7781,-45.3581,67.59,59,63,8.81,broken clouds
387,Mujiayingzi,CN,42.1167,118.7833,70.29,78,100,6.71,overcast clouds
388,Juneau,US,58.3019,-134.4197,68.11,96,48,2.21,scattered clouds
389,Kirakira,SB,-10.4544,161.9205,77.72,84,78,10.2,broken clouds
390,Lasa,IT,46.6166,10.7002,72.48,64,38,4.88,scattered clouds
391,Shahreza,IR,32.0339,51.8794,75.06,14,36,6.91,scattered clouds
392,Beringovskiy,RU,63.05,179.3167,48.47,75,7,2.68,clear sky
393,San Jeronimo,PE,-11.9472,-75.2829,64.18,32,38,4.68,scattered clouds
394,Pimentel,PE,-6.8367,-79.9342,70.09,64,0,8.05,clear sky
395,Kapit,MY,2.0167,112.9333,74.21,99,100,0.09,overcast clouds
396,Winnemucca,US,40.973,-117.7357,82.45,28,0,3.44,clear sky
397,Iquique,CL,-20.2208,-70.1431,60.84,64,1,4.99,clear sky
398,Tabou,CI,4.423,-7.3528,77.77,75,24,10.22,few clouds
399,Dombarovskiy,RU,50.7587,59.5386,62.58,35,47,10.49,scattered clouds
400,Nova Era,BR,-19.75,-43.0375,72.88,43,79,6.26,broken clouds
401,Ibra,OM,22.6906,58.5334,90.73,38,72,2.24,broken clouds
402,Srednekolymsk,RU,67.45,153.6833,60.3,67,100,6.85,overcast clouds
403,Krasnogvardeyskoye,RU,45.8456,41.5186,78.13,32,76,23.58,broken clouds
404,Kita,ML,13.0349,-9.4895,81.21,72,40,4.5,scattered clouds
405,Mirai,BR,-21.1953,-42.6142,72.3,38,52,7.11,broken clouds
406,Mareeba,AU,-17.0,145.4333,63.32,90,6,1.86,clear sky
407,Lourdes,FR,43.1,-0.05,76.12,64,20,10.36,few clouds
408,Guadalupe Victoria,MX,32.2869,-115.105,94.68,46,0,10.47,clear sky
409,Tabas,IR,33.5959,56.9244,84.45,14,0,6.22,clear sky
410,Surt,LY,31.2089,16.5887,82.31,66,0,13.73,clear sky
411,Faya,SA,18.3851,42.4509,66.31,79,74,6.06,broken clouds
412,Ovalle,CL,-30.5983,-71.2003,70.05,49,22,5.66,few clouds
413,San Rafael,AR,-34.6177,-68.3301,59.59,36,54,9.44,broken clouds
414,Dingle,PH,10.9995,122.6711,76.23,89,100,1.99,overcast clouds
415,Adrar,MR,20.5022,-10.0711,102.63,18,4,8.14,clear sky
416,Linxia,CN,35.6003,103.2064,64.65,86,100,4.21,very heavy rain
417,Verkhoyansk,RU,67.5447,133.385,48.74,93,86,3.04,overcast clouds
418,Sibolga,ID,1.7427,98.7792,76.37,78,100,2.42,overcast clouds
419,Singaraja,ID,-8.112,115.0882,75.42,82,43,5.37,scattered clouds
420,Sungairaya,ID,0.7,108.9,76.96,86,100,3.2,overcast clouds
421,Insar,RU,53.8653,44.3738,66.69,51,22,8.28,few clouds
422,Slave Lake,CA,55.2834,-114.769,66.18,63,75,8.05,broken clouds
423,Mackay,AU,-21.15,149.2,56.68,79,2,10.89,clear sky
424,Grenville,GD,12.1167,-61.6167,75.25,75,99,5.39,overcast clouds
425,Acari,PE,-15.4311,-74.6158,74.95,44,16,8.93,few clouds
426,Vao,NC,-22.6667,167.4833,71.37,77,91,3.33,overcast clouds
427,Mazyr,BY,52.0495,29.2456,69.42,59,14,5.68,few clouds
428,Kruisfontein,ZA,-34.0033,24.7314,51.89,75,0,6.06,clear sky
429,Mattru,SL,7.6244,-11.8332,76.01,92,89,4.94,moderate rain
430,Kushima,JP,31.4583,131.2333,78.51,94,25,4.12,scattered clouds
431,Nizhnevartovsk,RU,60.9344,76.5531,46.42,100,0,4.47,clear sky
432,Macapa,BR,0.0389,-51.0664,91.38,58,40,8.05,scattered clouds
433,Haimen,CN,23.1935,116.6142,82.29,86,98,9.53,overcast clouds
434,Kumluca,TR,36.3703,30.2869,83.32,69,31,3.02,scattered clouds
435,Price,US,39.5994,-110.8107,71.11,38,9,2.3,clear sky
436,Chimore,BO,-16.9833,-65.1333,82.72,20,0,2.98,clear sky
437,Parana,AR,-31.732,-60.5238,68.58,29,37,3.78,scattered clouds
438,Bergen,NO,60.392,5.328,58.15,78,75,11.5,broken clouds
439,Prince Rupert,CA,54.3161,-130.3201,55.49,100,100,6.91,fog
440,Maragogi,BR,-9.0122,-35.2225,76.46,79,54,12.84,broken clouds
441,Sydney Mines,CA,46.2367,-60.2177,84.15,73,20,9.22,few clouds
442,Santiago Del Estero,AR,-27.7951,-64.2615,73.29,13,0,4.72,clear sky
443,Putai,FR,46.6579,1.9863,67.39,53,100,6.82,light rain
444,Isola Del Liri,IT,41.6862,13.5823,77.27,65,100,2.62,overcast clouds
445,Ixtapa,MX,20.7,-105.2,87.22,63,47,7.0,scattered clouds
446,Huron,US,41.1501,-82.5499,77.68,87,99,6.53,overcast clouds
447,Woodward,US,36.4337,-99.3904,72.97,78,40,4.61,light rain
448,Simbahan,PH,6.3032,120.5836,83.61,72,100,8.84,overcast clouds
449,Mingguang,CN,32.7802,117.9638,83.7,70,95,7.9,overcast clouds
450,Karatau,KZ,43.1667,70.4667,61.02,37,0,18.34,clear sky
451,Padang,ID,-0.9492,100.3543,76.17,78,100,4.63,heavy intensity rain
452,Sikasso,ML,10.9167,-7.0,80.4,77,60,1.95,light rain
453,Pakxan,LA,18.3778,103.6601,73.78,99,100,1.79,overcast clouds
454,Poum,NC,-20.2333,164.0167,72.91,86,60,16.33,broken clouds
455,Xining,CN,36.6167,101.7667,61.48,97,100,2.59,moderate rain
456,Kupang,ID,-10.1667,123.5833,75.33,67,36,15.21,scattered clouds
457,Leningradskiy,RU,69.3833,178.4167,38.23,84,37,10.42,scattered clouds
458,Merauke,ID,-8.4667,140.3333,74.57,85,9,13.35,clear sky
459,Bhawanipatna,IN,19.9,83.1667,74.89,91,100,5.26,heavy intensity rain
460,Seymchan,RU,62.8833,152.4333,53.91,91,100,4.65,light rain
461,Coihaique,CL,-45.5752,-72.0662,50.61,66,100,2.3,overcast clouds
462,Beyneu,KZ,45.3167,55.2,78.93,32,76,10.89,broken clouds
463,Charters Towers,AU,-20.1,146.2667,55.04,91,0,8.57,clear sky
464,Fortuna,US,40.5982,-124.1573,63.99,84,0,8.05,clear sky
465,Nabire,ID,-3.3667,135.4833,76.21,90,99,2.15,overcast clouds
466,Port Macquarie,AU,-31.4333,152.9167,42.89,89,25,5.35,scattered clouds
467,Boyolangu,ID,-8.1181,111.8935,72.7,90,65,4.05,broken clouds
468,Puerto Colombia,CO,10.9878,-74.9547,84.29,72,100,9.75,overcast clouds
469,Batemans Bay,AU,-35.7167,150.1833,43.11,79,59,5.21,broken clouds
470,Biak,ID,-0.9131,122.8766,74.79,87,97,6.6,overcast clouds
471,Makakilo City,US,21.3469,-158.0858,78.69,72,51,14.07,broken clouds
472,Yarada,IN,17.65,83.2667,84.25,71,83,9.95,broken clouds
473,Maltahohe,NA,-24.8333,16.9833,59.25,15,2,7.45,clear sky
474,Te Anau,NZ,-45.4167,167.7167,38.59,99,100,0.56,overcast clouds
475,Diego De Almagro,CL,-26.3667,-70.05,73.96,20,61,8.52,broken clouds
476,Berlevag,NO,70.8578,29.0864,68.0,77,100,16.11,overcast clouds
477,Shalinskoye,RU,55.7228,93.7594,49.66,95,100,11.77,light rain
478,Gornopravdinsk,RU,60.05,69.9,52.0,83,100,2.68,overcast clouds
479,Gisborne,NZ,-38.6533,178.0042,52.81,89,63,6.06,broken clouds
480,Zaysan,KZ,47.4667,84.8667,54.27,49,25,8.79,scattered clouds
481,Banjar,ID,-8.19,114.9675,72.55,89,40,5.46,scattered clouds
482,Sinnamary,GF,5.3833,-52.95,83.57,72,35,7.74,moderate rain
483,Ugoofaaru,MV,5.6667,73.0,82.27,75,88,15.1,overcast clouds
484,Turukhansk,RU,65.8167,87.9833,42.08,71,83,8.23,broken clouds
485,Villanueva De La Serena,ES,38.9766,-5.7974,98.22,9,1,9.62,clear sky
486,Antsohihy,MG,-14.8796,47.9875,70.43,77,6,1.52,clear sky
487,Kutum,SD,14.2,24.6667,77.81,54,38,8.21,scattered clouds
488,Meadow Lake,US,34.8014,-106.5436,77.31,53,35,4.43,scattered clouds
489,Gao,ML,16.6362,1.637,95.58,31,11,5.46,few clouds
490,Flekkefjord,NO,58.2971,6.6607,61.95,81,13,10.58,few clouds
491,Rawson,AR,-43.3002,-65.1023,56.28,48,1,24.85,clear sky
492,Cap Malheureux,MU,-19.9842,57.6142,68.47,73,40,1.99,scattered clouds
493,North Platte,US,41.1239,-100.7654,81.32,49,6,7.0,clear sky
494,Samana,DO,19.2056,-69.3369,89.82,70,20,9.22,few clouds
495,Teya,RU,60.3778,92.6267,39.6,93,61,3.15,broken clouds
496,Dukat,RU,62.55,155.55,46.51,99,100,6.6,light rain
497,Chitipa,MW,-9.7024,33.2697,65.21,63,54,6.96,broken clouds
498,Thunder Bay,CA,48.4001,-89.3168,75.11,50,20,5.75,few clouds
499,Zhanaozen,KZ,43.3,52.8,76.08,27,2,18.9,clear sky
500,Saint-Joseph,RE,-21.3667,55.6167,68.38,70,13,5.28,few clouds
501,Saint-Georges,GD,12.0564,-61.7485,74.88,94,75,0.0,broken clouds
502,San Quintin,MX,30.4833,-115.95,71.1,77,98,7.09,overcast clouds
503,Port Lincoln,AU,-34.7333,135.8667,53.85,91,6,15.7,clear sky
504,Nerchinskiy Zavod,RU,51.3088,119.61,44.6,88,96,3.15,overcast clouds
505,Arawa,PG,-6.2132,155.5367,74.68,92,12,1.86,light rain
506,Svetlaya,RU,46.5389,138.3297,61.18,71,36,8.03,scattered clouds
507,Khani,GE,41.9563,42.9566,69.37,49,66,5.93,broken clouds
508,Fowa,NG,8.9167,6.4,78.44,76,58,3.13,broken clouds
509,Lachi,PK,33.3833,71.3386,79.18,69,87,3.0,overcast clouds
510,Sao Filipe,CV,14.8961,-24.4956,77.04,87,100,4.92,overcast clouds
511,Pandharpur,IN,17.6667,75.3333,76.12,77,100,13.67,overcast clouds
512,Xinzhi,CN,36.4989,111.7047,84.72,67,86,4.18,moderate rain
513,Cockburn Town,TC,21.4612,-71.1419,87.76,62,40,14.97,scattered clouds
514,De Panne,BE,51.0792,2.5917,71.01,67,75,4.61,broken clouds
515,Tiarei,PF,-17.5333,-149.3333,75.22,75,22,14.2,few clouds
516,Mulege,MX,26.8833,-111.9833,89.2,33,60,3.74,broken clouds
517,Touros,BR,-5.1989,-35.4608,81.61,62,52,19.35,broken clouds
518,Breves,BR,-1.6822,-50.4803,91.4,44,85,4.97,overcast clouds
519,Katsuura,JP,35.1333,140.3,76.12,95,64,11.23,broken clouds
520,Mantua,IT,45.1667,10.7833,88.84,59,6,1.01,clear sky
521,Nova Olinda Do Norte,BR,-3.8881,-59.0942,99.07,24,56,4.76,broken clouds
522,Guadalupe Y Calvo,MX,26.1,-106.9667,69.46,54,60,6.44,broken clouds
523,Kainantu,PG,-6.2887,145.8655,55.18,95,61,2.1,broken clouds
524,Blythe,US,33.6103,-114.5964,93.04,47,4,10.16,clear sky
525,Gasa,PS,31.5,34.4667,81.88,58,0,4.97,clear sky
526,Sola,VU,-13.8833,167.55,79.02,69,8,17.22,clear sky
527,Chamba,IN,32.5667,76.1333,73.71,83,47,3.76,scattered clouds
528,Kamina,CD,-8.7386,24.9906,75.81,23,50,4.16,scattered clouds
529,Shimoda,JP,34.6667,138.95,75.11,91,71,10.45,broken clouds
530,Kibala,TD,9.1104,18.3463,75.15,88,20,6.91,few clouds
531,Coahuayana,MX,18.7333,-103.6833,91.96,50,48,4.54,scattered clouds
532,Matagami,CA,49.7502,-77.6328,69.91,60,20,6.91,few clouds
533,Iguatemi,BR,-23.6803,-54.5611,72.72,56,3,6.8,clear sky
534,Port Moresby,PG,-9.4431,147.1797,73.31,91,40,8.01,scattered clouds
535,Cathedral City,US,33.7797,-116.4653,99.28,56,20,5.99,few clouds
536,Conde,BR,-7.2597,-34.9075,81.86,65,75,18.41,broken clouds
537,Cuyo,PH,10.8525,121.0086,82.81,77,100,11.68,heavy intensity rain
538,Sao Felix Do Xingu,BR,-6.6447,-51.995,97.7,17,99,5.95,overcast clouds
539,Torbay,CA,47.6666,-52.7314,63.28,81,75,5.75,broken clouds
540,La Paz,BO,-16.5,-68.15,60.78,24,20,5.75,few clouds
541,Knyaze-Volkonskoye,RU,48.4642,135.4567,61.14,86,10,5.88,clear sky
542,Kawalu,ID,-7.3817,108.2082,70.83,97,100,0.78,overcast clouds
543,Yarmouth,US,41.7057,-70.2286,86.14,85,42,1.99,scattered clouds
544,Shirokiy,RU,49.758,129.523,50.41,85,35,2.89,scattered clouds
545,Hervey Bay,AU,-25.2986,152.8535,62.31,79,12,12.26,few clouds
546,Eregli,TR,37.5133,34.0467,74.35,45,13,9.28,few clouds
547,Maceio,BR,-9.6658,-35.7353,74.64,83,75,17.27,broken clouds
548,Bambanglipuro,ID,-7.95,110.2833,74.5,85,99,6.62,overcast clouds
549,Nikolayevskaya,RU,47.6139,41.5023,79.38,27,96,20.31,overcast clouds
550,Severomuysk,RU,56.1481,113.4267,35.46,88,36,4.88,scattered clouds
551,Najran,SA,17.4924,44.1277,93.85,17,80,6.49,broken clouds
552,Rudsar,IR,37.1376,50.288,82.38,80,34,2.44,scattered clouds
553,Lata,PT,40.1629,-8.3327,67.82,65,1,9.89,clear sky
554,Manicore,BR,-5.8092,-61.3003,85.95,48,0,5.75,clear sky
555,Ewa Beach,US,21.3156,-158.0072,80.1,72,42,15.48,scattered clouds
556,Sovetskiy,RU,61.3614,63.5842,65.52,64,81,5.01,broken clouds
557,Monrovia,LR,6.3005,-10.7969,80.37,77,100,9.51,overcast clouds
558,Waitati,NZ,-45.75,170.5667,48.79,72,66,3.78,broken clouds
559,Gazojak,TM,41.1875,61.4036,71.37,18,0,15.48,clear sky
560,Diu,IN,20.7141,70.9822,80.67,81,93,15.05,overcast clouds
561,Pulsano,IT,40.3821,17.3564,80.82,47,57,5.01,broken clouds
562,Gobabis,NA,-22.45,18.9667,57.24,14,0,11.68,clear sky
563,Mana,GF,5.6592,-53.7767,82.22,73,37,7.85,scattered clouds
564,Texarkana,US,33.4251,-94.0477,84.42,74,75,6.91,broken clouds
565,Khash,IR,28.2211,61.2158,76.6,15,6,4.79,clear sky
566,Leshukonskoye,RU,64.8989,45.7622,62.37,61,2,4.36,clear sky
567,Sao Felipe,BR,-14.8167,-41.3833,70.77,63,99,11.95,overcast clouds
568,Cacu,BR,-18.5567,-51.1308,85.73,27,51,6.93,broken clouds
569,Novi Pazar,RS,43.1367,20.5122,64.02,97,100,3.15,overcast clouds
570,Hillsborough,US,37.5741,-122.3794,80.94,73,100,17.27,overcast clouds
571,Seoul,KR,37.5683,126.9778,78.24,91,20,4.61,few clouds
572,Sakakah,SA,29.9697,40.2064,94.57,16,0,9.26,clear sky
573,Coquimbo,CL,-29.9533,-71.3436,55.13,82,100,5.75,overcast clouds
574,Kailua,US,21.4022,-157.7394,80.15,74,38,4.0,scattered clouds
575,Sioux Lookout,CA,50.1001,-91.917,73.47,56,20,8.05,few clouds
576,Cairns,AU,-16.9167,145.7667,67.95,68,33,11.5,scattered clouds
577,Tezu,IN,27.9167,96.1667,77.99,96,21,2.91,few clouds
578,Sirjan,IR,29.452,55.6814,76.8,12,0,9.86,clear sky
579,Shakiso,ET,5.75,38.9167,62.62,79,98,2.71,overcast clouds
580,Goderich,CA,43.7501,-81.7165,73.9,83,100,9.22,overcast clouds
581,Gadarwara,IN,22.9167,78.7833,73.44,97,100,15.41,heavy intensity rain
582,Reconquista,AR,-29.15,-59.65,68.81,29,0,3.94,clear sky
583,Tulsipur,NP,28.131,82.2973,74.98,87,86,3.24,overcast clouds
584,Nanzhang,CN,31.7765,111.8386,85.66,64,98,6.58,overcast clouds
585,Salto,UY,-31.3833,-57.9667,64.56,49,0,8.01,clear sky
586,Shrewsbury,GB,52.7101,-2.7521,69.67,78,100,6.91,overcast clouds
587,Cascais,PT,38.6979,-9.4215,82.26,70,20,26.46,few clouds
588,Yar-Sale,RU,66.8333,70.8333,53.51,93,100,6.2,overcast clouds
589,Tsumeb,NA,-19.2333,17.7167,65.3,11,42,9.26,scattered clouds
590,Lafia,NG,8.4833,8.5167,77.67,84,71,3.67,broken clouds
591,Kaoma,ZM,-14.7833,24.8,66.76,20,11,5.35,few clouds
592,Volyne,CZ,49.1658,13.8862,67.39,86,96,3.49,overcast clouds
593,Hagdan,PH,11.3333,123.9,81.63,77,100,11.95,overcast clouds
594,Springbok,ZA,-29.6643,17.8865,54.28,32,0,5.77,clear sky
595,Ambilobe,MG,-13.2,49.05,74.53,56,80,7.61,broken clouds
596,Varnavino,RU,57.4035,45.0916,60.94,66,5,4.99,clear sky
597,Boueni,YT,-12.9025,45.0761,75.18,75,11,7.81,few clouds
598,Barcelos,PT,41.5388,-8.6151,83.91,68,28,12.26,scattered clouds
599,Mecca,SA,21.4267,39.8261,92.55,27,41,6.38,scattered clouds
600,Campoverde,PE,-8.4753,-74.8058,88.12,27,68,4.61,broken clouds
601,Bijar,IR,35.8668,47.6051,69.21,28,53,10.04,broken clouds
602,Buzdyak,RU,54.5833,54.55,70.75,63,99,3.71,overcast clouds
603,Boa Vista,BR,2.8197,-60.6733,83.95,69,66,8.86,broken clouds
604,Betul,IN,21.9153,77.8961,70.84,96,100,20.13,heavy intensity rain
605,Saint-Augustin,CA,51.226,-58.6502,74.88,64,13,10.63,few clouds
606,San Patricio,US,28.017,-97.5169,89.49,69,93,12.64,overcast clouds
607,Semporna,MY,4.4818,118.6112,79.72,82,98,3.71,overcast clouds
608,Weiser,US,44.251,-116.9693,92.32,35,1,1.99,clear sky
609,Lashio,MM,22.9333,97.75,69.96,99,94,0.29,light rain
610,Sinazongwe,ZM,-17.2614,27.4618,72.82,48,1,1.16,clear sky
611,Husavik,IS,66.0449,-17.3389,43.79,68,43,6.62,scattered clouds
612,Buala,SB,-8.145,159.5921,78.71,82,80,6.58,light rain
613,Dovers,VC,12.8833,-61.1833,78.39,75,87,12.12,overcast clouds
614,Sosnovka,RU,56.255,51.2842,64.17,72,0,3.11,clear sky
615,Palmer,US,42.1584,-72.3287,88.77,43,95,8.01,overcast clouds
616,Watsa,CD,3.0372,29.5355,67.19,86,84,1.97,broken clouds
617,Nikolayevka,RU,53.1257,47.2041,67.28,54,0,5.26,clear sky
618,Sibu,MY,2.3,111.8167,72.63,98,95,0.65,overcast clouds
619,College,US,64.8569,-147.8028,62.08,72,97,1.01,overcast clouds
620,San Ramon De La Nueva Oran,AR,-23.1322,-64.326,77.43,13,0,4.79,clear sky
621,Kloulklubed,PW,7.0419,134.2556,83.26,72,38,7.43,scattered clouds
622,Reni,UA,45.4573,28.2932,76.37,63,51,6.85,broken clouds
623,Cabra,ES,37.4725,-4.4421,98.65,15,1,1.01,clear sky
624,Northam,GB,51.0333,-4.2167,67.24,82,54,4.54,broken clouds
625,Dezful,IR,32.3811,48.4058,101.7,10,4,3.85,clear sky
626,Fort Nelson,CA,58.8053,-122.7002,65.79,59,20,2.3,few clouds
627,Jumla,NP,29.2747,82.1838,61.99,92,98,4.79,overcast clouds
628,Chernyy Yar,RU,48.0624,46.1091,76.3,31,93,12.71,overcast clouds
629,Kondopoga,RU,62.2057,34.2614,61.07,84,100,4.21,overcast clouds
630,Nsoko,SZ,-27.0333,31.95,57.61,74,0,4.09,clear sky
631,Aguimes,ES,27.9054,-15.4461,81.23,61,0,27.63,clear sky
632,Vung Tau,VN,10.346,107.0843,80.1,85,84,11.07,broken clouds
633,Muisne,EC,0.6,-80.0333,76.84,74,89,9.13,overcast clouds
634,Ust-Maya,RU,60.4167,134.5333,52.39,77,100,9.62,overcast clouds
635,Shelburne,CA,44.0787,-80.2041,75.31,74,100,6.13,overcast clouds
636,Beidao,CN,34.5686,105.8933,78.4,73,100,3.29,overcast clouds
637,Iroquois Falls,CA,48.7669,-80.6831,72.81,48,4,3.78,clear sky
638,Agirish,RU,61.9247,63.0231,64.74,65,69,3.31,broken clouds
639,Xifeng,CN,42.7372,124.7222,66.49,91,100,7.4,overcast clouds
640,Bonavista,CA,48.6499,-53.1147,62.83,71,81,4.25,broken clouds
641,Inirida,CO,3.8653,-67.9239,73.4,89,93,5.3,overcast clouds
642,Novikovo,RU,51.1537,37.8879,74.3,26,99,11.95,overcast clouds
643,Vestmannaeyjar,IS,63.4427,-20.2734,52.79,82,40,4.61,scattered clouds
644,Saint-Louis,SN,16.3333,-15.0,87.48,53,100,3.2,overcast clouds
645,Nanning,CN,22.8167,108.3167,77.14,92,30,4.83,scattered clouds
646,Knysna,ZA,-34.0363,23.0471,52.16,79,0,3.67,clear sky
647,Ouadda,CF,8.0777,22.4007,68.9,96,99,2.89,light rain
648,Catuday,PH,16.2923,119.8062,80.85,80,100,9.86,moderate rain
649,Shingu,JP,33.7333,135.9833,76.91,92,10,4.92,clear sky
650,Brae,GB,60.3964,-1.353,53.87,81,24,16.13,few clouds
651,San Vicente,AR,-26.6167,-54.1333,71.37,51,5,0.76,clear sky
652,Ransang,PH,8.9603,117.5828,77.56,88,95,2.01,overcast clouds
653,Namibe,AO,-15.1961,12.1522,65.77,93,9,3.27,clear sky
654,Caririacu,BR,-7.0422,-39.2836,86.92,23,37,9.4,scattered clouds
655,Atar,MR,20.5169,-13.0499,97.29,30,52,10.27,broken clouds
656,Ormara,PK,25.2088,64.6357,81.61,85,73,10.67,broken clouds
657,Comodoro Rivadavia,AR,-45.8667,-67.5,55.26,58,0,17.27,clear sky
658,Madisonville,US,37.3281,-87.4989,81.88,76,68,1.01,broken clouds
659,Omboue,GA,-1.5746,9.2618,75.06,86,72,7.38,broken clouds
660,Pasighat,IN,28.0667,95.3333,79.54,88,2,2.37,clear sky
661,Alamosa,US,37.4695,-105.87,69.78,43,0,3.44,clear sky
662,Nishihara,JP,26.1842,127.7558,83.68,84,100,9.22,overcast clouds
663,Stornoway,GB,58.2093,-6.3865,58.93,79,40,9.22,scattered clouds
664,Marawi,PH,7.9986,124.2928,68.67,92,100,4.61,overcast clouds
665,Quang Ngai,VN,15.1167,108.8,77.47,90,28,4.41,scattered clouds
666,Damara,CF,4.9608,18.7035,71.22,96,100,2.53,overcast clouds
667,Krasnozerskoye,RU,53.9828,79.2374,55.0,80,100,7.65,overcast clouds
668,Rameswaram,IN,9.2833,79.3,83.08,80,92,19.19,overcast clouds
669,Terrace,CA,54.5163,-128.6035,76.51,54,0,0.69,clear sky
670,Mago,RU,53.2514,140.1822,53.31,93,100,7.94,overcast clouds
671,Sun City West,US,33.662,-112.3413,91.15,58,20,4.0,few clouds
672,Flin Flon,CA,54.7682,-101.865,64.31,79,100,8.01,overcast clouds
673,Maumere,ID,-8.6199,122.2111,75.02,74,49,5.39,scattered clouds
674,Anadyr,RU,64.75,177.4833,48.0,70,5,4.0,clear sky
675,Filadelfia,US,39.9523,-75.1638,88.21,59,75,6.91,broken clouds
676,Vila,PT,42.0304,-8.1588,75.7,50,36,7.67,scattered clouds
677,Mamallapuram,IN,12.6264,80.1722,78.06,77,98,9.06,moderate rain
678,Beliu,RO,46.4833,21.9833,66.92,95,100,2.95,overcast clouds
679,Cavalcante,BR,-13.7975,-47.4583,83.62,22,35,11.88,scattered clouds
680,Vostok,RU,46.4856,135.8833,52.97,91,51,4.23,broken clouds
681,Kerchevskiy,RU,59.946,56.2884,60.66,70,0,3.24,clear sky
682,Esil,KZ,51.9556,66.4042,55.87,87,58,6.6,broken clouds
683,Kerema,PG,-7.9631,145.7785,74.97,92,91,1.68,overcast clouds
684,Rumphi,MW,-11.0186,33.8575,64.92,71,29,4.7,scattered clouds
685,Tapachula,MX,14.9,-92.2833,86.52,74,75,6.91,broken clouds
686,Souillac,MU,-20.5167,57.5167,68.38,83,40,3.44,scattered clouds
687,Bandiagara,ML,14.3501,-3.6104,87.96,48,75,3.96,broken clouds
688,Uthal,PK,25.8072,66.6219,81.16,86,100,6.93,overcast clouds
